{
 "category": "按摩", 
 "rating": 4.5, 
 "lat": "13.740927", 
 "name": "Health Land Spa & Massage(Srinakarin)", 
 "phone": "+66-2-2611110", 
 "city_id": "1", 
 "photos": null, 
 "avgprice": 236, 
 "office_hours": "9:00-24:00", 
 "shop_id": 1000, 
 "address": "55/5Sukhumvit21Rd.,Khlongtoeinuea,Wattana,Bangkok", 
 "city_name": "曼谷", 
 "lng": "100.560915", 
 "category_id": 1
}
{
 "category": "按摩", 
 "rating": 4.5, 
 "lat": "13.721006", 
 "name": "Health Land Spa & Massage(Srinakarin)", 
 "phone": "+66-2-637-8883", 
 "city_id": "1", 
 "photos": null, 
 "avgprice": 256, 
 "office_hours": "周一至周日：9:00-23:00", 
 "shop_id": 1001, 
 "address": "120NorthSathornRd,Silom,Bangrak,Bangkok", 
 "city_name": "曼谷", 
 "lng": "100.526459", 
 "category_id": 1
}
{
 "category": "按摩", 
 "rating": 4.5, 
 "lat": "13.742279", 
 "name": "Let&apos;s Relax", 
 "phone": "+66-2-6626935", 
 "city_id": "1", 
 "photos": null, 
 "avgprice": 276, 
 "office_hours": "Let'sRelax", 
 "shop_id": 1002, 
 "address": "SukhumvitSoi39,NorthKlongton,Wattana", 
 "city_name": "曼谷", 
 "lng": "100.572648", 
 "category_id": 1
}
{
 "category": "按摩", 
 "rating": 4.0, 
 "lat": "13.737766", 
 "name": "Let&apos;s Relax", 
 "phone": "+66-2-1080555", 
 "city_id": "1", 
 "photos": null, 
 "avgprice": 157, 
 "office_hours": "Let'sRelax", 
 "shop_id": 1003, 
 "address": "6thFloorHollywoodTerminal21Shoppingmall2,88SukhumvitSoi19SukhumvitRoadNorthKlongtoei,Wattana", 
 "city_name": "曼谷", 
 "lng": "100.560669", 
 "category_id": 1
}
{
 "category": "按摩", 
 "rating": 4.5, 
 "lat": "13.745299", 
 "name": "Hello Kitty餐厅及按摩馆", 
 "phone": "+66-2-26369000", 
 "city_id": "1", 
 "photos": null, 
 "avgprice": null, 
 "office_hours": "SanrioHelloKittyHouse", 
 "shop_id": 1004, 
 "address": "37/6พระรามที่1,PathumWan,SiamSquareOne,groundfloor,SiamSquare,Bangkok", 
 "city_name": "曼谷", 
 "lng": "100.533951", 
 "category_id": 1
}
{
 "category": "按摩", 
 "rating": 4.0, 
 "lat": "13.74732609", 
 "name": "Montra Health & Spa", 
 "phone": "02-252-5562", 
 "city_id": "1", 
 "photos": null, 
 "avgprice": null, 
 "office_hours": "10:30-21:30", 
 "shop_id": 1005, 
 "address": "曼谷帕图万地区仑披尼地区Ratchadamri路中央世界广场B区", 
 "city_name": "曼谷", 
 "lng": "100.5399257", 
 "category_id": 1
}
{
 "category": "按摩", 
 "rating": 4.0, 
 "lat": "13.72643430852867", 
 "name": "Health Land Spa & Massage (Srinakarin)", 
 "phone": "Telephone", 
 "city_id": "1", 
 "photos": null, 
 "avgprice": null, 
 "office_hours": "尚无营业时间", 
 "shop_id": 1006, 
 "address": "70/21Moo2,SirnakarinRd.Nongbon,Phawat,Bangkok", 
 "city_name": "曼谷", 
 "lng": "100.52493498468635", 
 "category_id": 1
}
{
 "category": "按摩", 
 "rating": 4.0, 
 "lat": "13.741527", 
 "name": "Diora静", 
 "phone": "+66-2-6521112", 
 "city_id": "1", 
 "photos": null, 
 "avgprice": 250, 
 "office_hours": "DioraLangsuan", 
 "shop_id": 1007, 
 "address": "เข้าซอยหลังสวนตรงไป100เมตรอยู่ด้านขวาติดกับเซเว่น/36SoiLangsuan,Lumpini,Chidlom,Bangkok10330", 
 "city_name": "曼谷", 
 "lng": "100.543358", 
 "category_id": 1
}
{
 "category": "按摩", 
 "rating": 4.0, 
 "lat": "13.731677564042137", 
 "name": "Let’s Relax", 
 "phone": "Telephone", 
 "city_id": "1", 
 "photos": null, 
 "avgprice": null, 
 "office_hours": "尚无营业时间", 
 "shop_id": 1008, 
 "address": "KhwaengMahaPhruttharamThanonRamaIV", 
 "city_name": "曼谷", 
 "lng": "100.52789046665703", 
 "category_id": 1
}
{
 "category": "按摩", 
 "rating": 4.5, 
 "lat": "13.760963831543421", 
 "name": "Bua Sabai", 
 "phone": "+66-2-6449711", 
 "city_id": "1", 
 "photos": null, 
 "avgprice": null, 
 "office_hours": "9:00-23:00", 
 "shop_id": 1009, 
 "address": "3/1RangnamRoad,Phayathai,Ratchathewi,Bangkok", 
 "city_name": "曼谷", 
 "lng": "100.5379173477439", 
 "category_id": 1
}
{
 "category": "按摩", 
 "rating": 4.5, 
 "lat": "13.740683", 
 "name": "The Oasis Spa", 
 "phone": "66 (0) 2262 2122", 
 "city_id": "1", 
 "photos": null, 
 "avgprice": null, 
 "office_hours": "尚无营业时间", 
 "shop_id": 1010, 
 "address": "64Sukhumvit31Road,SoiSawasdee,Wattana,Bangkok", 
 "city_name": "曼谷", 
 "lng": "100.568298", 
 "category_id": 1
}
{
 "category": "按摩", 
 "rating": 3.5, 
 "lat": "13.751516", 
 "name": "Reborn Spa and Massage", 
 "phone": "+66-2-6135533", 
 "city_id": "1", 
 "photos": null, 
 "avgprice": null, 
 "office_hours": "尚无营业时间", 
 "shop_id": 1011, 
 "address": "2/4PetchburiSoi15,PetchburiRd,,PetchburiRd,Nextto,6Soi15,PetchburiRd", 
 "city_name": "曼谷", 
 "lng": "100.536854", 
 "category_id": 1
}
{
 "category": "按摩", 
 "rating": 4.0, 
 "lat": "13.728587", 
 "name": "Asia Herb Association按摩店", 
 "phone": "0066851140123", 
 "city_id": "1", 
 "photos": null, 
 "avgprice": 245, 
 "office_hours": "AsiaHerbAssociation", 
 "shop_id": 1012, 
 "address": "50/6，SukhumvitRd.，Soi24，Klongton，Klongtoey", 
 "city_name": "曼谷", 
 "lng": "100.568878", 
 "category_id": 1
}
{
 "category": "按摩", 
 "rating": 3.5, 
 "lat": "13.7209793907317", 
 "name": "The PrinCe Men&apos;s Spa", 
 "phone": "Telephone", 
 "city_id": "1", 
 "photos": null, 
 "avgprice": null, 
 "office_hours": "王子男士SPA", 
 "shop_id": 1013, 
 "address": "253,4号SuanpluSoi6,SathornRd.,Bangkok.10120号(近IResidenceHotelSathorn)", 
 "city_name": "曼谷", 
 "lng": "100.540008544922", 
 "category_id": 1
}
{
 "category": "按摩", 
 "rating": 3.5, 
 "lat": "13.759003", 
 "name": "Siam Oriental Inn & Massage Beauty Salon", 
 "phone": "+66-2-6290312", 
 "city_id": "1", 
 "photos": null, 
 "avgprice": null, 
 "office_hours": "尚无营业时间", 
 "shop_id": 1014, 
 "address": "190-192KhaosanRoad,PhraNakhon", 
 "city_name": "曼谷", 
 "lng": "100.497306", 
 "category_id": 1
}
{
 "category": "按摩", 
 "rating": 4.5, 
 "lat": "13.740927", 
 "name": "Health Land Spa & Massage(Srinakarin)", 
 "phone": "+66-2-2611110", 
 "city_id": "1", 
 "photos": null, 
 "avgprice": 236, 
 "office_hours": "9:00-24:00", 
 "shop_id": 1015, 
 "address": "55/5Sukhumvit21Rd.,Khlongtoeinuea,Wattana,Bangkok", 
 "city_name": "曼谷", 
 "lng": "100.560915", 
 "category_id": 1
}
{
 "category": "按摩", 
 "rating": 4.5, 
 "lat": "13.721006", 
 "name": "Health Land Spa & Massage(Srinakarin)", 
 "phone": "+66-2-637-8883", 
 "city_id": "1", 
 "photos": null, 
 "avgprice": 256, 
 "office_hours": "周一至周日：9:00-23:00", 
 "shop_id": 1016, 
 "address": "120NorthSathornRd,Silom,Bangrak,Bangkok", 
 "city_name": "曼谷", 
 "lng": "100.526459", 
 "category_id": 1
}
{
 "category": "按摩", 
 "rating": 4.5, 
 "lat": "13.742279", 
 "name": "Let&apos;s Relax", 
 "phone": "+66-2-6626935", 
 "city_id": "1", 
 "photos": null, 
 "avgprice": 276, 
 "office_hours": "Let'sRelax", 
 "shop_id": 1017, 
 "address": "SukhumvitSoi39,NorthKlongton,Wattana", 
 "city_name": "曼谷", 
 "lng": "100.572648", 
 "category_id": 1
}
{
 "category": "按摩", 
 "rating": 4.0, 
 "lat": "13.737766", 
 "name": "Let&apos;s Relax", 
 "phone": "+66-2-1080555", 
 "city_id": "1", 
 "photos": null, 
 "avgprice": 157, 
 "office_hours": "Let'sRelax", 
 "shop_id": 1018, 
 "address": "6thFloorHollywoodTerminal21Shoppingmall2,88SukhumvitSoi19SukhumvitRoadNorthKlongtoei,Wattana", 
 "city_name": "曼谷", 
 "lng": "100.560669", 
 "category_id": 1
}
{
 "category": "按摩", 
 "rating": 4.5, 
 "lat": "13.745299", 
 "name": "Hello Kitty餐厅及按摩馆", 
 "phone": "+66-2-26369000", 
 "city_id": "1", 
 "photos": null, 
 "avgprice": null, 
 "office_hours": "SanrioHelloKittyHouse", 
 "shop_id": 1019, 
 "address": "37/6พระรามที่1,PathumWan,SiamSquareOne,groundfloor,SiamSquare,Bangkok", 
 "city_name": "曼谷", 
 "lng": "100.533951", 
 "category_id": 1
}
{
 "category": "按摩", 
 "rating": 4.0, 
 "lat": "13.74732609", 
 "name": "Montra Health & Spa", 
 "phone": "02-252-5562", 
 "city_id": "1", 
 "photos": null, 
 "avgprice": null, 
 "office_hours": "10:30-21:30", 
 "shop_id": 1020, 
 "address": "曼谷帕图万地区仑披尼地区Ratchadamri路中央世界广场B区", 
 "city_name": "曼谷", 
 "lng": "100.5399257", 
 "category_id": 1
}
{
 "category": "按摩", 
 "rating": 4.0, 
 "lat": "13.72643430852867", 
 "name": "Health Land Spa & Massage (Srinakarin)", 
 "phone": "Telephone", 
 "city_id": "1", 
 "photos": null, 
 "avgprice": null, 
 "office_hours": "尚无营业时间", 
 "shop_id": 1021, 
 "address": "70/21Moo2,SirnakarinRd.Nongbon,Phawat,Bangkok", 
 "city_name": "曼谷", 
 "lng": "100.52493498468635", 
 "category_id": 1
}
{
 "category": "按摩", 
 "rating": 4.0, 
 "lat": "13.741527", 
 "name": "Diora静", 
 "phone": "+66-2-6521112", 
 "city_id": "1", 
 "photos": null, 
 "avgprice": 250, 
 "office_hours": "DioraLangsuan", 
 "shop_id": 1022, 
 "address": "เข้าซอยหลังสวนตรงไป100เมตรอยู่ด้านขวาติดกับเซเว่น/36SoiLangsuan,Lumpini,Chidlom,Bangkok10330", 
 "city_name": "曼谷", 
 "lng": "100.543358", 
 "category_id": 1
}
{
 "category": "按摩", 
 "rating": 4.0, 
 "lat": "13.731677564042137", 
 "name": "Let’s Relax", 
 "phone": "Telephone", 
 "city_id": "1", 
 "photos": null, 
 "avgprice": null, 
 "office_hours": "尚无营业时间", 
 "shop_id": 1023, 
 "address": "KhwaengMahaPhruttharamThanonRamaIV", 
 "city_name": "曼谷", 
 "lng": "100.52789046665703", 
 "category_id": 1
}
{
 "category": "按摩", 
 "rating": 4.5, 
 "lat": "13.760963831543421", 
 "name": "Bua Sabai", 
 "phone": "+66-2-6449711", 
 "city_id": "1", 
 "photos": null, 
 "avgprice": null, 
 "office_hours": "9:00-23:00", 
 "shop_id": 1024, 
 "address": "3/1RangnamRoad,Phayathai,Ratchathewi,Bangkok", 
 "city_name": "曼谷", 
 "lng": "100.5379173477439", 
 "category_id": 1
}
{
 "category": "按摩", 
 "rating": 4.5, 
 "lat": "13.740683", 
 "name": "The Oasis Spa", 
 "phone": "66 (0) 2262 2122", 
 "city_id": "1", 
 "photos": null, 
 "avgprice": null, 
 "office_hours": "尚无营业时间", 
 "shop_id": 1025, 
 "address": "64Sukhumvit31Road,SoiSawasdee,Wattana,Bangkok", 
 "city_name": "曼谷", 
 "lng": "100.568298", 
 "category_id": 1
}
{
 "category": "按摩", 
 "rating": 3.5, 
 "lat": "13.751516", 
 "name": "Reborn Spa and Massage", 
 "phone": "+66-2-6135533", 
 "city_id": "1", 
 "photos": null, 
 "avgprice": null, 
 "office_hours": "尚无营业时间", 
 "shop_id": 1026, 
 "address": "2/4PetchburiSoi15,PetchburiRd,,PetchburiRd,Nextto,6Soi15,PetchburiRd", 
 "city_name": "曼谷", 
 "lng": "100.536854", 
 "category_id": 1
}
{
 "category": "按摩", 
 "rating": 4.0, 
 "lat": "13.728587", 
 "name": "Asia Herb Association按摩店", 
 "phone": "0066851140123", 
 "city_id": "1", 
 "photos": null, 
 "avgprice": 245, 
 "office_hours": "AsiaHerbAssociation", 
 "shop_id": 1027, 
 "address": "50/6，SukhumvitRd.，Soi24，Klongton，Klongtoey", 
 "city_name": "曼谷", 
 "lng": "100.568878", 
 "category_id": 1
}
{
 "category": "按摩", 
 "rating": 3.5, 
 "lat": "13.7209793907317", 
 "name": "The PrinCe Men&apos;s Spa", 
 "phone": "Telephone", 
 "city_id": "1", 
 "photos": null, 
 "avgprice": null, 
 "office_hours": "王子男士SPA", 
 "shop_id": 1028, 
 "address": "253,4号SuanpluSoi6,SathornRd.,Bangkok.10120号(近IResidenceHotelSathorn)", 
 "city_name": "曼谷", 
 "lng": "100.540008544922", 
 "category_id": 1
}
{
 "category": "按摩", 
 "rating": 3.5, 
 "lat": "13.759003", 
 "name": "Siam Oriental Inn & Massage Beauty Salon", 
 "phone": "+66-2-6290312", 
 "city_id": "1", 
 "photos": null, 
 "avgprice": null, 
 "office_hours": "尚无营业时间", 
 "shop_id": 1029, 
 "address": "190-192KhaosanRoad,PhraNakhon", 
 "city_name": "曼谷", 
 "lng": "100.497306", 
 "category_id": 1
}
{
 "category": "按摩", 
 "rating": 4.0, 
 "lat": "13.73679", 
 "name": "Lavana 禅 Bangkok", 
 "phone": "+66-2-229451012", 
 "city_id": "1", 
 "photos": null, 
 "avgprice": 185, 
 "office_hours": "09:00-次日00:00，最后预约时间23:00", 
 "shop_id": 1030, 
 "address": "4SoiSukhumvit12(轻轨nana站)", 
 "city_name": "曼谷", 
 "lng": "100.55795", 
 "category_id": 1
}
{
 "category": "按摩", 
 "rating": 3.5, 
 "lat": "13.745096", 
 "name": "泰式按摩", 
 "phone": "Telephone", 
 "city_id": "1", 
 "photos": null, 
 "avgprice": null, 
 "office_hours": "ThaiMassage", 
 "shop_id": 1031, 
 "address": "Soi3,SiamSq,ThPhraRam1", 
 "city_name": "曼谷", 
 "lng": "100.532745", 
 "category_id": 1
}
{
 "category": "按摩", 
 "rating": 4.5, 
 "lat": "13.719935", 
 "name": "汤の森温泉", 
 "phone": "+66-2-259-5778", 
 "city_id": "1", 
 "photos": null, 
 "avgprice": null, 
 "office_hours": "YunomoriOnsenandSpa", 
 "shop_id": 1032, 
 "address": "A-Square120/5SoiSukhumvit26Klongton,Klongtoney,Bangkok(就叫A广场哈，不是一个广场！)", 
 "city_name": "曼谷", 
 "lng": "100.566734", 
 "category_id": 1
}
{
 "category": "按摩", 
 "rating": 3.5, 
 "lat": "13.74529", 
 "name": "Center Point Massage", 
 "phone": "+66-2-26584598", 
 "city_id": "1", 
 "photos": null, 
 "avgprice": 193, 
 "office_hours": "CenterPointMassage", 
 "shop_id": 1033, 
 "address": "SiamSquare3AlleyPathumWanBangkok泰国", 
 "city_name": "曼谷", 
 "lng": "100.533007", 
 "category_id": 1
}
{
 "category": "按摩", 
 "rating": 3.5, 
 "lat": "13.726861574191426", 
 "name": "Bodytune（Silom店）", 
 "phone": "Telephone", 
 "city_id": "1", 
 "photos": null, 
 "avgprice": null, 
 "office_hours": "尚无营业时间", 
 "shop_id": 1034, 
 "address": "56YadaBldg.,2/F,SilomRoad", 
 "city_name": "曼谷", 
 "lng": "100.53479660897742", 
 "category_id": 1
}
{
 "category": "按摩", 
 "rating": 4.0, 
 "lat": "13.725787", 
 "name": "Onsen sky spa  风吕温泉", 
 "phone": "+6622336666", 
 "city_id": "1", 
 "photos": null, 
 "avgprice": null, 
 "office_hours": "风吕温泉", 
 "shop_id": 1035, 
 "address": "491/43-44SilomPlaza,SilomRoad,Bangrak,Bangkok10500", 
 "city_name": "曼谷", 
 "lng": "100.527788", 
 "category_id": 1
}
{
 "category": "按摩", 
 "rating": 3.5, 
 "lat": "13.740214", 
 "name": "五月按摩店", 
 "phone": "+66-2-2580760", 
 "city_id": "1", 
 "photos": null, 
 "avgprice": null, 
 "office_hours": "MayMassage", 
 "shop_id": 1036, 
 "address": "139/1Sukhumvit21(Asok),", 
 "city_name": "曼谷", 
 "lng": "100.561356", 
 "category_id": 1
}
{
 "category": "按摩", 
 "rating": 3.5, 
 "lat": "13.745465", 
 "name": "Ba-Ya Health and Spa", 
 "phone": "+66-2-2523014", 
 "city_id": "1", 
 "photos": null, 
 "avgprice": null, 
 "office_hours": "10:00-22:00", 
 "shop_id": 1037, 
 "address": "23Sukhumvit87Rd.,SoiSiSiri.,Bangjak,Prakanong", 
 "city_name": "曼谷", 
 "lng": "100.534339", 
 "category_id": 1
}
{
 "category": "按摩", 
 "rating": 3.5, 
 "lat": "13.750125", 
 "name": "Kannikar Beauty Massage", 
 "phone": "Telephone", 
 "city_id": "1", 
 "photos": null, 
 "avgprice": null, 
 "office_hours": "尚无营业时间", 
 "shop_id": 1038, 
 "address": "CentralWorldMall(3rdFloor),พระนคร,กรุงเทพมหานคร,ประเทศไทย", 
 "city_name": "曼谷", 
 "lng": "100.539488", 
 "category_id": 1
}
{
 "category": "按摩", 
 "rating": 3.5, 
 "lat": "13.74489912", 
 "name": "Foot Master", 
 "phone": "02-684-1506", 
 "city_id": "1", 
 "photos": null, 
 "avgprice": null, 
 "office_hours": "10am-11pm", 
 "shop_id": 1039, 
 "address": "曼谷帕度万地区仑披尼地区隆齐路阿玛林酒店广场496-502号3rdFl", 
 "city_name": "曼谷", 
 "lng": "100.5403059", 
 "category_id": 1
}
{
 "category": "按摩", 
 "rating": 3.5, 
 "lat": "13.726676368565743", 
 "name": "Center Point Massage & Spa（Silom店）", 
 "phone": "+66-2-26340342", 
 "city_id": "1", 
 "photos": null, 
 "avgprice": 285, 
 "office_hours": "10:00-1:00", 
 "shop_id": 1040, 
 "address": "128/4-5SilomSoi6,Silom,BTSSalaDaengStationExit1", 
 "city_name": "曼谷", 
 "lng": "100.53146456943003", 
 "category_id": 1
}
{
 "category": "按摩", 
 "rating": 4.5, 
 "lat": "13.747", 
 "name": "泰国卧佛寺传统按摩学校", 
 "phone": "( 66) 2 221-2974", 
 "city_id": "1", 
 "photos": null, 
 "avgprice": 82, 
 "office_hours": "尚无营业时间", 
 "shop_id": 1041, 
 "address": "2SanamchaiRoad|WatPo,Tatian,Bangkok10200,Thailand", 
 "city_name": "曼谷", 
 "lng": "100.494003", 
 "category_id": 1
}
{
 "category": "按摩", 
 "rating": 3.5, 
 "lat": "13.74445", 
 "name": "Lek Foot Massage", 
 "phone": "+66-2-6583930", 
 "city_id": "1", 
 "photos": null, 
 "avgprice": null, 
 "office_hours": "8:00-24:00", 
 "shop_id": 1042, 
 "address": "412/3SiamSquareSoi6,OppositeofNovotelParkingEntrance,RamaIRd.,Patumwan,Bangkok", 
 "city_name": "曼谷", 
 "lng": "100.535179", 
 "category_id": 1
}
{
 "category": "按摩", 
 "rating": 4.0, 
 "lat": "13.73624035", 
 "name": "Divana Massage and Spa", 
 "phone": "+66-2-661 6784", 
 "city_id": "1", 
 "photos": null, 
 "avgprice": null, 
 "office_hours": "周一至周五:11:00-23:00开放；周六和周日：10:00-23:00开放", 
 "shop_id": 1043, 
 "address": "Sukhumvit路25巷7号", 
 "city_name": "曼谷", 
 "lng": "100.5636979", 
 "category_id": 1
}
{
 "category": "按摩", 
 "rating": 3.5, 
 "lat": "13.744054", 
 "name": "i.sawanResidential Spa & Club", 
 "phone": "02 254 1234", 
 "city_id": "1", 
 "photos": null, 
 "avgprice": null, 
 "office_hours": "尚无营业时间", 
 "shop_id": 1044, 
 "address": "曼谷Rajdamri路494号", 
 "city_name": "曼谷", 
 "lng": "100.540437", 
 "category_id": 1
}
{
 "category": "按摩", 
 "rating": 3.5, 
 "lat": "13.74235", 
 "name": "Bangkok Massage Girl Service", 
 "phone": "+66-2-877102880", 
 "city_id": "1", 
 "photos": null, 
 "avgprice": null, 
 "office_hours": "尚无营业时间", 
 "shop_id": 1045, 
 "address": "Ploenchit", 
 "city_name": "曼谷", 
 "lng": "100.549261", 
 "category_id": 1
}
{
 "category": "按摩", 
 "rating": 3.5, 
 "lat": "13.73350186", 
 "name": "Body Tune", 
 "phone": "+66-2-26627778", 
 "city_id": "1", 
 "photos": null, 
 "avgprice": null, 
 "office_hours": "10am-12mn", 
 "shop_id": 1046, 
 "address": "曼谷Klongton地区素坤逸39巷182-3号", 
 "city_name": "曼谷", 
 "lng": "100.5694748", 
 "category_id": 1
}
{
 "category": "按摩", 
 "rating": 3.5, 
 "lat": "13.72814", 
 "name": "Sala Daeng按摩街", 
 "phone": "Telephone", 
 "city_id": "1", 
 "photos": null, 
 "avgprice": null, 
 "office_hours": "尚无营业时间", 
 "shop_id": 1047, 
 "address": "曼谷", 
 "city_name": "曼谷", 
 "lng": "100.535931", 
 "category_id": 1
}
{
 "category": "按摩", 
 "rating": 4.0, 
 "lat": "13.740446", 
 "name": "Chao 9 Massage", 
 "phone": "+66-2-2517766", 
 "city_id": "1", 
 "photos": null, 
 "avgprice": null, 
 "office_hours": "09:00-24:00", 
 "shop_id": 1048, 
 "address": "49,23号Langsuanroad,Lumpini,Pathumwan", 
 "city_name": "曼谷", 
 "lng": "100.543602", 
 "category_id": 1
}
{
 "category": "按摩", 
 "rating": 3.5, 
 "lat": "13.719473", 
 "name": "CHI, The Spa at Shangri-La Hotel", 
 "phone": "+66-2-2367777", 
 "city_id": "1", 
 "photos": null, 
 "avgprice": null, 
 "office_hours": "尚无营业时间", 
 "shop_id": 1049, 
 "address": "曼谷曼谷之翼大厦班格拉区新路WatSuanPhlu巷89号", 
 "city_name": "曼谷", 
 "lng": "100.513583", 
 "category_id": 1
}
{
 "category": "按摩", 
 "rating": 3.5, 
 "lat": "13.744504", 
 "name": "chang Foot Massage", 
 "phone": "+66-2-6546339", 
 "city_id": "1", 
 "photos": null, 
 "avgprice": null, 
 "office_hours": "尚无营业时间", 
 "shop_id": 1050, 
 "address": "SiamSquareSoi6nearNovotelHotel", 
 "city_name": "曼谷", 
 "lng": "100.532636", 
 "category_id": 1
}
{
 "category": "按摩", 
 "rating": 3.5, 
 "lat": "13.722876", 
 "name": "Erawan Spa", 
 "phone": "+66-2-6761677", 
 "city_id": "1", 
 "photos": null, 
 "avgprice": null, 
 "office_hours": "尚无营业时间", 
 "shop_id": 1051, 
 "address": "1076SoiSaunplu(SoiSathorn3),SathorntaiRoad,TungmahamejSathorn", 
 "city_name": "曼谷", 
 "lng": "100.537133", 
 "category_id": 1
}
{
 "category": "按摩", 
 "rating": 3.5, 
 "lat": "13.752222", 
 "name": "Divana Virtue Spa", 
 "phone": "+66-2-22366789", 
 "city_id": "1", 
 "photos": null, 
 "avgprice": null, 
 "office_hours": "10am--11pm", 
 "shop_id": 1052, 
 "address": "10SriviengSilomBangkok", 
 "city_name": "曼谷", 
 "lng": "100.493888", 
 "category_id": 1
}
{
 "category": "按摩", 
 "rating": 3.5, 
 "lat": "13.75951301", 
 "name": "ruamm urban spa retreat", 
 "phone": "+66-2-2802292", 
 "city_id": "1", 
 "photos": null, 
 "avgprice": null, 
 "office_hours": "ruammurbansparetreat", 
 "shop_id": 1053, 
 "address": "216KhaosanRd..Taladyord.Phranakron.Bangkok10200.Thailand", 
 "city_name": "曼谷", 
 "lng": "100.4976758", 
 "category_id": 1
}
{
 "category": "按摩", 
 "rating": 3.0, 
 "lat": "13.78169", 
 "name": "V-Club", 
 "phone": "Telephone", 
 "city_id": "1", 
 "photos": null, 
 "avgprice": null, 
 "office_hours": "每天14:00-24:00", 
 "shop_id": 1054, 
 "address": "PhayaThaiSamsenNaiAriSamphan4Alley", 
 "city_name": "曼谷", 
 "lng": "100.54125", 
 "category_id": 1
}
{
 "category": "按摩", 
 "rating": 3.5, 
 "lat": "13.759428", 
 "name": "皮安按摩", 
 "phone": "+66-2-6290924", 
 "city_id": "1", 
 "photos": null, 
 "avgprice": null, 
 "office_hours": "Pian'sMassage", 
 "shop_id": 1055, 
 "address": "108/15-16ThKhaoSan", 
 "city_name": "曼谷", 
 "lng": "100.496429", 
 "category_id": 1
}
{
 "category": "按摩", 
 "rating": 3.5, 
 "lat": "13.744321116438249", 
 "name": "Hot Stone Spa", 
 "phone": "Telephone", 
 "city_id": "1", 
 "photos": null, 
 "avgprice": null, 
 "office_hours": "尚无营业时间", 
 "shop_id": 1056, 
 "address": "พระนคร,กรุงเทพมหานคร,ประเทศไทย", 
 "city_name": "曼谷", 
 "lng": "100.55666649475415", 
 "category_id": 1
}
{
 "category": "按摩", 
 "rating": 3.5, 
 "lat": "13.789248", 
 "name": "Pretty Relax Spa Massage", 
 "phone": "087 516 0922", 
 "city_id": "1", 
 "photos": null, 
 "avgprice": null, 
 "office_hours": "尚无营业时间", 
 "shop_id": 1057, 
 "address": "曼谷恰图恰LadpraoChomPhon地区64号", 
 "city_name": "曼谷", 
 "lng": "100.58184", 
 "category_id": 1
}
{
 "category": "按摩", 
 "rating": 3.5, 
 "lat": "13.750186", 
 "name": "Clinic Thongnoppakhun", 
 "phone": "+66 81 452 0220", 
 "city_id": "1", 
 "photos": null, 
 "avgprice": null, 
 "office_hours": "尚无营业时间", 
 "shop_id": 1058, 
 "address": "3rdFloor,SiamDiscoveryMall,พระนคร,กรุงเทพมหานคร,ประเทศไทย", 
 "city_name": "曼谷", 
 "lng": "100.530826", 
 "category_id": 1
}
{
 "category": "按摩", 
 "rating": 3.5, 
 "lat": "13.718097", 
 "name": "Babylon Sauna", 
 "phone": "02 679 7984", 
 "city_id": "1", 
 "photos": null, 
 "avgprice": null, 
 "office_hours": "10:30-22:30", 
 "shop_id": 1059, 
 "address": "曼谷南沙吞街1巷Nandha巷34号", 
 "city_name": "曼谷", 
 "lng": "100.619936", 
 "category_id": 1
}
{
 "category": "按摩", 
 "rating": 3.5, 
 "lat": "13.715641", 
 "name": "Banyan Tree SPA", 
 "phone": "02 679 1052", 
 "city_id": "1", 
 "photos": null, 
 "avgprice": null, 
 "office_hours": "9am-10pm", 
 "shop_id": 1060, 
 "address": "曼谷南沙吞街ThaiWahTowerII21/100号", 
 "city_name": "曼谷", 
 "lng": "100.527332", 
 "category_id": 1
}
{
 "category": "按摩", 
 "rating": 3.5, 
 "lat": "13.74137079", 
 "name": "Spa 1930", 
 "phone": "Telephone", 
 "city_id": "1", 
 "photos": null, 
 "avgprice": null, 
 "office_hours": "尚无营业时间", 
 "shop_id": 1061, 
 "address": "PhloenChit,PathumWan,ปทุมวันBangkok10330泰国", 
 "city_name": "曼谷", 
 "lng": "100.5448547", 
 "category_id": 1
}
{
 "category": "按摩", 
 "rating": 3.5, 
 "lat": "13.77265", 
 "name": "Health Land Spa & Massage(Pinklao)", 
 "phone": "+66-2-882-4888", 
 "city_id": "1", 
 "photos": null, 
 "avgprice": null, 
 "office_hours": "周一至周日9:00-23:00", 
 "shop_id": 1062, 
 "address": "142/6CharansanitwongRd.ArunAmarin,BangkokNoiBangkok10700", 
 "city_name": "曼谷", 
 "lng": "100.477592", 
 "category_id": 1
}
{
 "category": "按摩", 
 "rating": 3.5, 
 "lat": "13.7138", 
 "name": "Sathorn Spa", 
 "phone": "Telephone", 
 "city_id": "1", 
 "photos": null, 
 "avgprice": null, 
 "office_hours": "尚无营业时间", 
 "shop_id": 1063, 
 "address": "Sathornrd.,พระนคร,กรุงเทพมหานคร,ประเทศไทย", 
 "city_name": "曼谷", 
 "lng": "100.53098", 
 "category_id": 1
}
{
 "category": "按摩", 
 "rating": 3.5, 
 "lat": "13.748764", 
 "name": "7th Sense Eastern Medi Spa", 
 "phone": "+66-2-2537791", 
 "city_id": "1", 
 "photos": null, 
 "avgprice": null, 
 "office_hours": "尚无营业时间", 
 "shop_id": 1064, 
 "address": "39/10-11Rajdamri1,RajdamriRoad,Lumpini,Patumwan", 
 "city_name": "曼谷", 
 "lng": "100.541424", 
 "category_id": 1
}
{
 "category": "按摩", 
 "rating": 3.5, 
 "lat": "13.7269931885516", 
 "name": "泰式按摩有马温泉", 
 "phone": "Telephone", 
 "city_id": "1", 
 "photos": null, 
 "avgprice": null, 
 "office_hours": "0900AM～0100AM", 
 "shop_id": 1065, 
 "address": "7,10-14号SoiSuriwongsePlaza,SuriwongseRoad", 
 "city_name": "曼谷", 
 "lng": "100.524301528931", 
 "category_id": 1
}
{
 "category": "按摩", 
 "rating": 3.5, 
 "lat": "13.739192224141256", 
 "name": "Holmes Spa, All Seasons Place", 
 "phone": "Telephone", 
 "city_id": "1", 
 "photos": null, 
 "avgprice": null, 
 "office_hours": "尚无营业时间", 
 "shop_id": 1066, 
 "address": "พระนคร,กรุงเทพมหานคร,ประเทศไทย", 
 "city_name": "曼谷", 
 "lng": "100.54746871661932", 
 "category_id": 1
}
{
 "category": "按摩", 
 "rating": 3.0, 
 "lat": "13.70710631", 
 "name": "THANN香薰理疗馆", 
 "phone": "Telephone", 
 "city_id": "1", 
 "photos": null, 
 "avgprice": null, 
 "office_hours": "尚无营业时间", 
 "shop_id": 1067, 
 "address": "257,ถ.เจริญนคร,แขวงบุคคโลเขตธนบุรีกทม,1060010600泰国", 
 "city_name": "曼谷", 
 "lng": "100.4842254", 
 "category_id": 1
}
{
 "category": "按摩", 
 "rating": 3.5, 
 "lat": "13.77756676", 
 "name": "Tara Spa Huaykwang", 
 "phone": "+66-2-2752661", 
 "city_id": "1", 
 "photos": null, 
 "avgprice": null, 
 "office_hours": "TaraSpa&Massage", 
 "shop_id": 1068, 
 "address": "Soi14PracharatBamphen,HuayKhwang,Bangkok(地下鐵HuayKhwang站2号出口,步行約七分鐘)", 
 "city_name": "曼谷", 
 "lng": "100.5792684", 
 "category_id": 1
}
{
 "category": "按摩", 
 "rating": 3.5, 
 "lat": "13.737079", 
 "name": "Urban Retreat", 
 "phone": "Telephone", 
 "city_id": "1", 
 "photos": null, 
 "avgprice": null, 
 "office_hours": "尚无营业时间", 
 "shop_id": 1069, 
 "address": "BTSAsokeStation,Bangkok10110,Thailand", 
 "city_name": "曼谷", 
 "lng": "100.560333", 
 "category_id": 1
}
{
 "category": "按摩", 
 "rating": 3.5, 
 "lat": "13.9003249", 
 "name": "Body Tune Ari店", 
 "phone": "Telephone", 
 "city_id": "1", 
 "photos": null, 
 "avgprice": null, 
 "office_hours": "尚无营业时间", 
 "shop_id": 1070, 
 "address": "LaVilla3rdfloorNexttoBTSAriStation", 
 "city_name": "曼谷", 
 "lng": "100.5792162", 
 "category_id": 1
}
{
 "category": "按摩", 
 "rating": 3.5, 
 "lat": "13.73056", 
 "name": "Oasis Spa Bangkok Sukhumvit 51", 
 "phone": "+66-2-2622124", 
 "city_id": "1", 
 "photos": null, 
 "avgprice": null, 
 "office_hours": "尚无营业时间", 
 "shop_id": 1071, 
 "address": "88Sukhumvit51RoadWattanaBangkok10110泰国", 
 "city_name": "曼谷", 
 "lng": "100.57623", 
 "category_id": 1
}
{
 "category": "按摩", 
 "rating": 3.0, 
 "lat": "13.744481", 
 "name": "Aisawann traditional Thai massage and spa", 
 "phone": "+66-2-6551533", 
 "city_id": "1", 
 "photos": null, 
 "avgprice": null, 
 "office_hours": "尚无营业时间", 
 "shop_id": 1072, 
 "address": "ถนนเพลินจิต,Lumphini,PathumWan", 
 "city_name": "曼谷", 
 "lng": "100.542948", 
 "category_id": 1
}
{
 "category": "按摩", 
 "rating": 3.5, 
 "lat": "13.725874", 
 "name": "Bangrakspa", 
 "phone": "Telephone", 
 "city_id": "1", 
 "photos": null, 
 "avgprice": null, 
 "office_hours": "尚无营业时间", 
 "shop_id": 1073, 
 "address": "พระนคร,กรุงเทพมหานคร,ประเทศไทย", 
 "city_name": "曼谷", 
 "lng": "100.515454", 
 "category_id": 1
}
{
 "category": "按摩", 
 "rating": 3.5, 
 "lat": "13.73024661096422", 
 "name": "Yen Sbai", 
 "phone": "Telephone", 
 "city_id": "1", 
 "photos": null, 
 "avgprice": null, 
 "office_hours": "尚无营业时间", 
 "shop_id": 1074, 
 "address": "172SukhumvitSoi16(KhlongToey),พระนคร,กรุงเทพมหานคร10110,ประเทศไทย", 
 "city_name": "曼谷", 
 "lng": "100.56120528331311", 
 "category_id": 1
}
{
 "category": "按摩", 
 "rating": 3.5, 
 "lat": "13.74149028897965", 
 "name": "Nice @ Spa", 
 "phone": "Telephone", 
 "city_id": "1", 
 "photos": null, 
 "avgprice": null, 
 "office_hours": "尚无营业时间", 
 "shop_id": 1075, 
 "address": "TheNine(EastVillage,3rdFl.),สวนหลวง,กรุงเทพมหานคร10250,ประเทศไทย", 
 "city_name": "曼谷", 
 "lng": "100.62516868114471", 
 "category_id": 1
}
{
 "category": "按摩", 
 "rating": 3.5, 
 "lat": "0.0", 
 "name": "PAI SPA", 
 "phone": "+66-2-6295155", 
 "city_id": "1", 
 "photos": null, 
 "avgprice": null, 
 "office_hours": "尚无营业时间", 
 "shop_id": 1076, 
 "address": "考山路", 
 "city_name": "曼谷", 
 "lng": "0.0", 
 "category_id": 1
}
{
 "category": "按摩", 
 "rating": 3.0, 
 "lat": "13.7488887", 
 "name": "Green Massage", 
 "phone": "Telephone", 
 "city_id": "1", 
 "photos": null, 
 "avgprice": 93, 
 "office_hours": "尚无营业时间", 
 "shop_id": 1077, 
 "address": "曼谷Surawong119号", 
 "city_name": "曼谷", 
 "lng": "100.5619169", 
 "category_id": 1
}
{
 "category": "按摩", 
 "rating": 3.5, 
 "lat": "13.740847", 
 "name": "So Thai Spa Bangkok", 
 "phone": "+66-2-6622691", 
 "city_id": "1", 
 "photos": null, 
 "avgprice": null, 
 "office_hours": "尚无营业时间", 
 "shop_id": 1078, 
 "address": "269SukhumvitSoi31,Bangkok", 
 "city_name": "曼谷", 
 "lng": "100.567407", 
 "category_id": 1
}
{
 "category": "按摩", 
 "rating": 3.5, 
 "lat": "13.726159", 
 "name": "Dahra Beauty & Spa", 
 "phone": "+66-2-2354811", 
 "city_id": "1", 
 "photos": null, 
 "avgprice": null, 
 "office_hours": "尚无营业时间", 
 "shop_id": 1079, 
 "address": "Silom154/8-9,Bangkok10500,Thailand", 
 "city_name": "曼谷", 
 "lng": "100.526983", 
 "category_id": 1
}
{
 "category": "按摩", 
 "rating": 3.5, 
 "lat": "13.745388", 
 "name": "Lavana禅", 
 "phone": "+66-2-229451012", 
 "city_id": "1", 
 "photos": null, 
 "avgprice": null, 
 "office_hours": "Lavana", 
 "shop_id": 1080, 
 "address": "4SoiSukhumvit12", 
 "city_name": "曼谷", 
 "lng": "100.558548", 
 "category_id": 1
}
{
 "category": "按摩", 
 "rating": 3.5, 
 "lat": "13.740093585064352", 
 "name": "LUXSA Spa", 
 "phone": "Telephone", 
 "city_id": "1", 
 "photos": null, 
 "avgprice": null, 
 "office_hours": "尚无营业时间", 
 "shop_id": 1081, 
 "address": "HansarBangkok,ปทุมวัน,กรุงเทพมหานคร10330,ประเทศไทย", 
 "city_name": "曼谷", 
 "lng": "100.541271449622", 
 "category_id": 1
}
{
 "category": "按摩", 
 "rating": 3.0, 
 "lat": "13.723488016728536", 
 "name": "Suwannapoom Thai Massage And Spa", 
 "phone": "Telephone", 
 "city_id": "1", 
 "photos": null, 
 "avgprice": null, 
 "office_hours": "尚无营业时间", 
 "shop_id": 1082, 
 "address": "พระนคร,กรุงเทพมหานคร,ประเทศไทย", 
 "city_name": "曼谷", 
 "lng": "100.77289028214742", 
 "category_id": 1
}
{
 "category": "按摩", 
 "rating": 3.5, 
 "lat": "13.758784", 
 "name": "LeSpa by Pullman", 
 "phone": "Telephone", 
 "city_id": "1", 
 "photos": null, 
 "avgprice": null, 
 "office_hours": "10:00-22:00周一至周日", 
 "shop_id": 1083, 
 "address": "4thfloor,PullmanBangkokKingpower", 
 "city_name": "曼谷", 
 "lng": "100.537882", 
 "category_id": 1
}
{
 "category": "按摩", 
 "rating": 3.5, 
 "lat": "13.726044", 
 "name": "H.E. Massage & Spa", 
 "phone": "+66-2-6363710", 
 "city_id": "1", 
 "photos": null, 
 "avgprice": null, 
 "office_hours": "尚无营业时间", 
 "shop_id": 1084, 
 "address": "27/1ซอยศาลาแดง1สีลมบางรัก", 
 "city_name": "曼谷", 
 "lng": "100.539643", 
 "category_id": 1
}
{
 "category": "按摩", 
 "rating": 4.0, 
 "lat": "13.726377", 
 "name": "Semra Day Spa", 
 "phone": "Telephone", 
 "city_id": "1", 
 "photos": null, 
 "avgprice": null, 
 "office_hours": "尚无营业时间", 
 "shop_id": 1085, 
 "address": "SalaDeang,พระนคร,กรุงเทพมหานคร,ประเทศไทย", 
 "city_name": "曼谷", 
 "lng": "100.535907", 
 "category_id": 1
}
{
 "category": "按摩", 
 "rating": 3.5, 
 "lat": "13.757189888343696", 
 "name": "Siam Elephant Massage & Spa", 
 "phone": "Telephone", 
 "city_id": "1", 
 "photos": null, 
 "avgprice": null, 
 "office_hours": "尚无营业时间", 
 "shop_id": 1086, 
 "address": "GroundFloor,FortuneTown(Ratchadapisek),พระนคร,กรุงเทพมหานคร10400,ประเทศไทย", 
 "city_name": "曼谷", 
 "lng": "100.5650738705861", 
 "category_id": 1
}
{
 "category": "按摩", 
 "rating": 3.5, 
 "lat": "13.792412", 
 "name": "Bali Spa", 
 "phone": "+66-2-2900125", 
 "city_id": "1", 
 "photos": null, 
 "avgprice": null, 
 "office_hours": "尚无营业时间", 
 "shop_id": 1087, 
 "address": "247ChaoPhyaParkHotel,4th.FloorThanthipBldg.,RachadapisekRoad,Dindaeng10400", 
 "city_name": "曼谷", 
 "lng": "100.57403", 
 "category_id": 1
}
{
 "category": "按摩", 
 "rating": 3.5, 
 "lat": "0.0", 
 "name": "Pian’s Susie", 
 "phone": "+66-2-629 0924", 
 "city_id": "1", 
 "photos": null, 
 "avgprice": null, 
 "office_hours": "每天7:30-00:30开放", 
 "shop_id": 1088, 
 "address": "SusiePub巷(考山路东端和RamBhuttri大街之间)", 
 "city_name": "曼谷", 
 "lng": "0.0", 
 "category_id": 1
}
{
 "category": "按摩", 
 "rating": 3.5, 
 "lat": "13.665817387847795", 
 "name": "Norawadee Massage", 
 "phone": "Telephone", 
 "city_id": "1", 
 "photos": null, 
 "avgprice": null, 
 "office_hours": "尚无营业时间", 
 "shop_id": 1089, 
 "address": "BangnaSoi4,บางนา,กรุงเทพมหานคร,ประเทศไทย", 
 "city_name": "曼谷", 
 "lng": "100.61573766562827", 
 "category_id": 1
}
{
 "category": "按摩", 
 "rating": 3.0, 
 "lat": "13.738614", 
 "name": "Seasons Spa", 
 "phone": "+66-2-6909355", 
 "city_id": "1", 
 "photos": null, 
 "avgprice": null, 
 "office_hours": "尚无营业时间", 
 "shop_id": 1090, 
 "address": "TheConradHotel,Bangkok87WirelessRoad,10330", 
 "city_name": "曼谷", 
 "lng": "100.548377", 
 "category_id": 1
}
{
 "category": "按摩", 
 "rating": 3.5, 
 "lat": "13.781957", 
 "name": "Supawadee beauty and spa", 
 "phone": "+66 82 975 1939", 
 "city_id": "1", 
 "photos": null, 
 "avgprice": null, 
 "office_hours": "尚无营业时间", 
 "shop_id": 1091, 
 "address": "75Pracharatbumphen7,ห้วยขวาง,กรุงเทพมหานคร10310,ประเทศไทย", 
 "city_name": "曼谷", 
 "lng": "100.577737", 
 "category_id": 1
}
{
 "category": "按摩", 
 "rating": 3.5, 
 "lat": "0.002728458322254793", 
 "name": "Nemita Spa", 
 "phone": "Telephone", 
 "city_id": "1", 
 "photos": null, 
 "avgprice": null, 
 "office_hours": "10:00-22:00周一至周日", 
 "shop_id": 1092, 
 "address": "26CharoenkrungSoi70,Bangkhorlam,Bangkok", 
 "city_name": "曼谷", 
 "lng": "0.015498497079753525", 
 "category_id": 1
}
{
 "category": "按摩", 
 "rating": 3.5, 
 "lat": "0.0", 
 "name": "Ramayana Koh Chang Resort and Spa", 
 "phone": "+66-2-22616364", 
 "city_id": "1", 
 "photos": null, 
 "avgprice": null, 
 "office_hours": "尚无营业时间", 
 "shop_id": 1093, 
 "address": "Bangkokoffice:253Asoke,24thFloor,SUkhumvit21Road,Klongtoey-nue,Wattana,Bangkok10110ResortAddress:19/9Moo4,KohChang,Trat23170", 
 "city_name": "曼谷", 
 "lng": "0.0", 
 "category_id": 1
}
{
 "category": "按摩", 
 "rating": 3.5, 
 "lat": "13.7278702", 
 "name": "Center Point Boutique Spa", 
 "phone": "02 634 0341", 
 "city_id": "1", 
 "photos": null, 
 "avgprice": null, 
 "office_hours": "Opendaily:10:00am-01:00mnwiththelastbookingat11:30pm.", 
 "shop_id": 1094, 
 "address": "曼谷是隆路是隆路6巷128/4-5号", 
 "city_name": "曼谷", 
 "lng": "100.600437", 
 "category_id": 1
}
{
 "category": "按摩", 
 "rating": 3.0, 
 "lat": "13.746515", 
 "name": "卧佛寺按摩分所", 
 "phone": "+66-2-622 3533", 
 "city_id": "1", 
 "photos": null, 
 "avgprice": null, 
 "office_hours": "尚无营业时间", 
 "shop_id": 1095, 
 "address": "Maharat路，Penphat1巷，392段，28号", 
 "city_name": "曼谷", 
 "lng": "100.493355", 
 "category_id": 1
}
{
 "category": "按摩", 
 "rating": 3.5, 
 "lat": "0.0", 
 "name": "pruksa", 
 "phone": "Telephone", 
 "city_id": "1", 
 "photos": null, 
 "avgprice": null, 
 "office_hours": "尚无营业时间", 
 "shop_id": 1096, 
 "address": "渣汶街道", 
 "city_name": "曼谷", 
 "lng": "0.0", 
 "category_id": 1
}
{
 "category": "按摩", 
 "rating": 3.5, 
 "lat": "13.756953", 
 "name": "Ake Kha Nake Spa", 
 "phone": "02 653 8117", 
 "city_id": "1", 
 "photos": null, 
 "avgprice": null, 
 "office_hours": "尚无营业时间", 
 "shop_id": 1097, 
 "address": "曼谷拉差贴威县披耶泰路", 
 "city_name": "曼谷", 
 "lng": "100.533856", 
 "category_id": 1
}
{
 "category": "按摩", 
 "rating": 3.5, 
 "lat": "13.761576124088275", 
 "name": "55 fish spa", 
 "phone": "Telephone", 
 "city_id": "1", 
 "photos": null, 
 "avgprice": null, 
 "office_hours": "尚无营业时间", 
 "shop_id": 1098, 
 "address": "RambuttriRoad,พระนคร,กรุงเทพมหานคร,ประเทศไทย", 
 "city_name": "曼谷", 
 "lng": "100.49571131811123", 
 "category_id": 1
}
{
 "category": "按摩", 
 "rating": 3.5, 
 "lat": "13.792884", 
 "name": "Farose Sauna", 
 "phone": "+66-2-26184515", 
 "city_id": "1", 
 "photos": null, 
 "avgprice": null, 
 "office_hours": "15:00-06:00", 
 "shop_id": 1099, 
 "address": "108/3Pradipat19,SaphanKwai", 
 "city_name": "曼谷", 
 "lng": "100.546091", 
 "category_id": 1
}
{
 "category": "按摩", 
 "rating": 3.5, 
 "lat": "13.746173", 
 "name": "Mamma Massage", 
 "phone": "Telephone", 
 "city_id": "1", 
 "photos": null, 
 "avgprice": null, 
 "office_hours": "尚无营业时间", 
 "shop_id": 1100, 
 "address": "บางกะปิ,กรุงเทพมหานคร,ประเทศไทย", 
 "city_name": "曼谷", 
 "lng": "100.587408", 
 "category_id": 1
}
{
 "category": "按摩", 
 "rating": 3.0, 
 "lat": "13.7599161", 
 "name": "Rang nam spa", 
 "phone": "Telephone", 
 "city_id": "1", 
 "photos": null, 
 "avgprice": null, 
 "office_hours": "尚无营业时间", 
 "shop_id": 1101, 
 "address": "ทุ่งพญาไท,กรุงเทพมหานคร,ประเทศไทย", 
 "city_name": "曼谷", 
 "lng": "100.542292", 
 "category_id": 1
}
{
 "category": "按摩", 
 "rating": 3.5, 
 "lat": "0.002728458322254793", 
 "name": "阿诺泰按摩店", 
 "phone": "Telephone", 
 "city_id": "1", 
 "photos": null, 
 "avgprice": null, 
 "office_hours": "尚无营业时间", 
 "shop_id": 1102, 
 "address": "KhwaengPhraBoromMahaRatchawangMahaRatRoad", 
 "city_name": "曼谷", 
 "lng": "0.015498497079753525", 
 "category_id": 1
}
{
 "category": "按摩", 
 "rating": 3.5, 
 "lat": "0.0", 
 "name": "Suvarnthara Thai Massage", 
 "phone": "Telephone", 
 "city_id": "1", 
 "photos": null, 
 "avgprice": null, 
 "office_hours": "尚无营业时间", 
 "shop_id": 1103, 
 "address": "曼谷(近胜利纪念碑，反贪局)", 
 "city_name": "曼谷", 
 "lng": "0.0", 
 "category_id": 1
}
{
 "category": "按摩", 
 "rating": 3.5, 
 "lat": "13.728925", 
 "name": "Apsara Spa & Massage", 
 "phone": "Telephone", 
 "city_id": "1", 
 "photos": null, 
 "avgprice": null, 
 "office_hours": "尚无营业时间", 
 "shop_id": 1104, 
 "address": "พระนคร,กรุงเทพมหานคร,ประเทศไทย", 
 "city_name": "曼谷", 
 "lng": "100.53528", 
 "category_id": 1
}
{
 "category": "按摩", 
 "rating": 3.5, 
 "lat": "13.69866611817199", 
 "name": "Orchid house spa", 
 "phone": "Telephone", 
 "city_id": "1", 
 "photos": null, 
 "avgprice": null, 
 "office_hours": "09:00-21:00周一至周日", 
 "shop_id": 1105, 
 "address": "KhwaengChongNonsiSoiNakhonThai20", 
 "city_name": "曼谷", 
 "lng": "100.5387752980239", 
 "category_id": 1
}
{
 "category": "按摩", 
 "rating": 3.5, 
 "lat": "13.78299331665039", 
 "name": "Baan Sabai Spa", 
 "phone": "Telephone", 
 "city_id": "1", 
 "photos": null, 
 "avgprice": null, 
 "office_hours": "尚无营业时间", 
 "shop_id": 1106, 
 "address": "98/6-8SoiSaiLom(PhahonyothinRd.),พระนคร,กรุงเทพมหานคร,ประเทศไทย", 
 "city_name": "曼谷", 
 "lng": "100.54695892333984", 
 "category_id": 1
}
{
 "category": "按摩", 
 "rating": 3.5, 
 "lat": "13.80186610799439", 
 "name": "Baifern Thai Classical Massage @ JJ Malll", 
 "phone": "Telephone", 
 "city_id": "1", 
 "photos": null, 
 "avgprice": null, 
 "office_hours": "尚无营业时间", 
 "shop_id": 1107, 
 "address": "พระนคร,กรุงเทพมหานคร,ประเทศไทย", 
 "city_name": "曼谷", 
 "lng": "100.54914951324464", 
 "category_id": 1
}
{
 "category": "按摩", 
 "rating": 3.5, 
 "lat": "13.767774", 
 "name": "Beauty Spa Thailand sc park hotel", 
 "phone": "+66 2 530 0560", 
 "city_id": "1", 
 "photos": null, 
 "avgprice": null, 
 "office_hours": "尚无营业时间", 
 "shop_id": 1108, 
 "address": "474ramkamhaeng39(wangthonglang),พระนคร,กรุงเทพมหานคร10310,ประเทศไทย", 
 "city_name": "曼谷", 
 "lng": "100.603675", 
 "category_id": 1
}
{
 "category": "按摩", 
 "rating": 3.5, 
 "lat": "13.733214276970148", 
 "name": "Diora Bangkok Spa", 
 "phone": "Telephone", 
 "city_id": "1", 
 "photos": null, 
 "avgprice": null, 
 "office_hours": "尚无营业时间", 
 "shop_id": 1109, 
 "address": "1OneFenixSquareBuilding,พระนคร,กรุงเทพมหานคร10110,ประเทศไทย", 
 "city_name": "曼谷", 
 "lng": "100.56539809195893", 
 "category_id": 1
}
{
 "category": "按摩", 
 "rating": 3.0, 
 "lat": "13.745333", 
 "name": "Lek@BTS", 
 "phone": "+66 2 658 0871", 
 "city_id": "1", 
 "photos": null, 
 "avgprice": null, 
 "office_hours": "尚无营业时间", 
 "shop_id": 1110, 
 "address": "3Fl402RamaIRd(SiamSquare),พระนคร,กรุงเทพมหานคร,ประเทศไทย", 
 "city_name": "曼谷", 
 "lng": "100.535277", 
 "category_id": 1
}
{
 "category": "按摩", 
 "rating": 3.5, 
 "lat": "13.829189", 
 "name": "Fah Lanna Spa", 
 "phone": "053 416 191", 
 "city_id": "1", 
 "photos": null, 
 "avgprice": null, 
 "office_hours": "尚无营业时间", 
 "shop_id": 1111, 
 "address": "清迈威昂Kaew路57/1号", 
 "city_name": "曼谷", 
 "lng": "100.600348", 
 "category_id": 1
}
{
 "category": "按摩", 
 "rating": 3.5, 
 "lat": "13.744488598763771", 
 "name": "Issey massage and spa", 
 "phone": "Telephone", 
 "city_id": "1", 
 "photos": null, 
 "avgprice": null, 
 "office_hours": "尚无营业时间", 
 "shop_id": 1112, 
 "address": "Siamsquaresoi6,ปทุมวัน,กรุงเทพมหานคร,ประเทศไทย", 
 "city_name": "曼谷", 
 "lng": "100.5349427574204", 
 "category_id": 1
}
{
 "category": "按摩", 
 "rating": 3.5, 
 "lat": "0.0", 
 "name": "叶子按摩", 
 "phone": "Telephone", 
 "city_id": "1", 
 "photos": null, 
 "avgprice": null, 
 "office_hours": "尚无营业时间", 
 "shop_id": 1113, 
 "address": "พัฒนาการ", 
 "city_name": "曼谷", 
 "lng": "0.0", 
 "category_id": 1
}
{
 "category": "按摩", 
 "rating": 3.0, 
 "lat": "13.752222", 
 "name": "Divana Divine Spa", 
 "phone": "+66-2-27128986", 
 "city_id": "1", 
 "photos": null, 
 "avgprice": null, 
 "office_hours": "Weekday11:00am-11:00pm,Weekend10:00am–11:00pm(LastBooking09:00pm)", 
 "shop_id": 1114, 
 "address": "103Thonglor17Sukhumvit55NorthKlongtonWattana", 
 "city_name": "曼谷", 
 "lng": "100.493888", 
 "category_id": 1
}
{
 "category": "按摩", 
 "rating": 3.5, 
 "lat": "13.727126", 
 "name": "Ruen Nuad Massage Studio", 
 "phone": "+66-2-026322662", 
 "city_id": "1", 
 "photos": null, 
 "avgprice": null, 
 "office_hours": "每天10:00--21:00", 
 "shop_id": 1115, 
 "address": "42ConventRoad,Silom", 
 "city_name": "曼谷", 
 "lng": "100.533546", 
 "category_id": 1
}
{
 "category": "按摩", 
 "rating": 3.0, 
 "lat": "13.7278956", 
 "name": "Tonphai Massage", 
 "phone": "Telephone", 
 "city_id": "1", 
 "photos": null, 
 "avgprice": null, 
 "office_hours": "尚无营业时间", 
 "shop_id": 1116, 
 "address": "近曼谷半岛酒店", 
 "city_name": "曼谷", 
 "lng": "100.5241235", 
 "category_id": 1
}
{
 "category": "按摩", 
 "rating": 3.0, 
 "lat": "13.792681", 
 "name": "39 Underground", 
 "phone": "+66-2-22791511", 
 "city_id": "1", 
 "photos": null, 
 "avgprice": null, 
 "office_hours": "WeekdayOpening:12:00-24:00WeekendOpening:12:00-24:00", 
 "shop_id": 1117, 
 "address": "1511/39PhaholyothinRoad,SoiPhaholyothinTheater", 
 "city_name": "曼谷", 
 "lng": "100.548119", 
 "category_id": 1
}
{
 "category": "按摩", 
 "rating": 3.5, 
 "lat": "0.0", 
 "name": "Anantara Hua Hin ResOrt & Spa", 
 "phone": "+66-2-32520250", 
 "city_id": "1", 
 "photos": null, 
 "avgprice": null, 
 "office_hours": "尚无营业时间", 
 "shop_id": 1118, 
 "address": "43,1号PhetkasemBeachRoad,HuaHin77110号", 
 "city_name": "曼谷", 
 "lng": "0.0", 
 "category_id": 1
}
{
 "category": "按摩", 
 "rating": 3.0, 
 "lat": "0.0", 
 "name": "Petchburi ReflexZone Spa, Massage & Beauty Salon", 
 "phone": "+66-2-23187193", 
 "city_id": "1", 
 "photos": null, 
 "avgprice": null, 
 "office_hours": "9-24", 
 "shop_id": 1119, 
 "address": "曼谷新碧武里路1882-1888号", 
 "city_name": "曼谷", 
 "lng": "0.0", 
 "category_id": 1
}
{
 "category": "按摩", 
 "rating": 3.0, 
 "lat": "13.72917171321747", 
 "name": "Center Point Massage & Spa", 
 "phone": "Telephone", 
 "city_id": "1", 
 "photos": null, 
 "avgprice": null, 
 "office_hours": "10:00-22:00周一至周日", 
 "shop_id": 1120, 
 "address": "KhwaengKhlongTanSoiSukhumvit24", 
 "city_name": "曼谷", 
 "lng": "100.5691158329057", 
 "category_id": 1
}
{
 "category": "按摩", 
 "rating": 3.0, 
 "lat": "13.725356", 
 "name": "Lullaby spa", 
 "phone": "+66-2-6777261", 
 "city_id": "1", 
 "photos": null, 
 "avgprice": null, 
 "office_hours": "尚无营业时间", 
 "shop_id": 1121, 
 "address": "1SouthSathornRoad,LifeCenteratLumpini,TungmahamekSouthSathorn,Sathon", 
 "city_name": "曼谷", 
 "lng": "100.544364", 
 "category_id": 1
}
{
 "category": "按摩", 
 "rating": 3.0, 
 "lat": "13.722898", 
 "name": "健康乐园", 
 "phone": "+66-2-6780763", 
 "city_id": "1", 
 "photos": null, 
 "avgprice": null, 
 "office_hours": "HealthLand", 
 "shop_id": 1122, 
 "address": "ThSathornNuaSoi12", 
 "city_name": "曼谷", 
 "lng": "100.52697", 
 "category_id": 1
}
{
 "category": "按摩", 
 "rating": 3.0, 
 "lat": "13.726262", 
 "name": "Spa Royal Botanic", 
 "phone": "+66-2-814472007", 
 "city_id": "1", 
 "photos": null, 
 "avgprice": null, 
 "office_hours": "尚无营业时间", 
 "shop_id": 1123, 
 "address": "SoiWatMuangKhae,BangRak,BangRak", 
 "city_name": "曼谷", 
 "lng": "100.515389", 
 "category_id": 1
}
{
 "category": "按摩", 
 "rating": 3.0, 
 "lat": "13.75854", 
 "name": "蓝天泰式按摩", 
 "phone": "Telephone", 
 "city_id": "1", 
 "photos": null, 
 "avgprice": null, 
 "office_hours": "尚无营业时间", 
 "shop_id": 1124, 
 "address": "曼谷挽甲必华目区兰甘亨42巷", 
 "city_name": "曼谷", 
 "lng": "100.63993", 
 "category_id": 1
}
{
 "category": "按摩", 
 "rating": 3.0, 
 "lat": "13.740824175408315", 
 "name": "ispa", 
 "phone": "Telephone", 
 "city_id": "1", 
 "photos": null, 
 "avgprice": null, 
 "office_hours": "尚无营业时间", 
 "shop_id": 1125, 
 "address": "9thTheLandmarkBangkok,พระนคร,กรุงเทพมหานคร,ประเทศไทย", 
 "city_name": "曼谷", 
 "lng": "100.55521039331998", 
 "category_id": 1
}
{
 "category": "按摩", 
 "rating": 0.0, 
 "lat": "13.723742", 
 "name": "悦榕庄Spa", 
 "phone": "Telephone", 
 "city_id": "1", 
 "photos": null, 
 "avgprice": null, 
 "office_hours": "BanyanTreeSpaBangkok", 
 "shop_id": 1126, 
 "address": "211UpperBukitTimahRoad", 
 "city_name": "曼谷", 
 "lng": "100.53976", 
 "category_id": 1
}
{
 "category": "按摩", 
 "rating": 2.0, 
 "lat": "0.0", 
 "name": "舒体泰式按摩", 
 "phone": "Telephone", 
 "city_id": "1", 
 "photos": null, 
 "avgprice": null, 
 "office_hours": "尚无营业时间", 
 "shop_id": 1127, 
 "address": "KhwaengMakkasanRatchapraropRoad", 
 "city_name": "曼谷", 
 "lng": "0.0", 
 "category_id": 1
}
{
 "category": "按摩", 
 "rating": 3.0, 
 "lat": "13.7422537", 
 "name": "曼谷拉林金达Spa", 
 "phone": "Telephone", 
 "city_id": "1", 
 "photos": null, 
 "avgprice": null, 
 "office_hours": "RarinJindaWellnessSpaResort", 
 "shop_id": 1128, 
 "address": "53/2SoiMahatlekLuang1,GrandeCentrePointHotelandResidence,8thFloor,RatchadamriRoad", 
 "city_name": "曼谷", 
 "lng": "100.5414967", 
 "category_id": 1
}
{
 "category": "按摩", 
 "rating": 0.0, 
 "lat": "13.723032", 
 "name": "The Peninsula Spa at The Peninsula", 
 "phone": "+66-2-8612888", 
 "city_id": "1", 
 "photos": null, 
 "avgprice": null, 
 "office_hours": "尚无营业时间", 
 "shop_id": 1129, 
 "address": "333CharoennakornRoad,Klongsan", 
 "city_name": "曼谷", 
 "lng": "100.511115", 
 "category_id": 1
}
{
 "category": "按摩", 
 "rating": 0.0, 
 "lat": "13.729136", 
 "name": "The Royal Orchid Mandara Spa", 
 "phone": "+66-2-2660123", 
 "city_id": "1", 
 "photos": null, 
 "avgprice": null, 
 "office_hours": "尚无营业时间", 
 "shop_id": 1130, 
 "address": "TheRoyalOrchidSheratonHotel,2CaptainBushLane,NewRoad,10500", 
 "city_name": "曼谷", 
 "lng": "100.513626", 
 "category_id": 1
}
{
 "category": "按摩", 
 "rating": 0.0, 
 "lat": "13.740078", 
 "name": "DR China Town Massage&Spa;", 
 "phone": "Telephone", 
 "city_id": "1", 
 "photos": null, 
 "avgprice": null, 
 "office_hours": "尚无营业时间", 
 "shop_id": 1131, 
 "address": "ChinaTown,พระนคร,กรุงเทพมหานคร,ประเทศไทย", 
 "city_name": "曼谷", 
 "lng": "100.510319", 
 "category_id": 1
}
{
 "category": "按摩", 
 "rating": 0.0, 
 "lat": "13.74661486343645", 
 "name": "Napaspa Siam Discovery", 
 "phone": "Telephone", 
 "city_id": "1", 
 "photos": null, 
 "avgprice": null, 
 "office_hours": "尚无营业时间", 
 "shop_id": 1132, 
 "address": "5FloorAtSiamSiscovery,พระนคร,กรุงเทพมหานคร,ประเทศไทย", 
 "city_name": "曼谷", 
 "lng": "100.5313061542544", 
 "category_id": 1
}
{
 "category": "按摩", 
 "rating": 0.0, 
 "lat": "13.736068622381513", 
 "name": "Let’s Relax", 
 "phone": "Telephone", 
 "city_id": "1", 
 "photos": null, 
 "avgprice": null, 
 "office_hours": "10:00-00:00周一至周日", 
 "shop_id": 1133, 
 "address": "WatthanaSukhumvit19Alley", 
 "city_name": "曼谷", 
 "lng": "100.56113779212639", 
 "category_id": 1
}
{
 "category": "按摩", 
 "rating": 0.0, 
 "lat": "0.0", 
 "name": "r3 sauna", 
 "phone": "Telephone", 
 "city_id": "1", 
 "photos": null, 
 "avgprice": null, 
 "office_hours": "尚无营业时间", 
 "shop_id": 1134, 
 "address": "KhwaengHuaiKhwangพระราม9", 
 "city_name": "曼谷", 
 "lng": "0.0", 
 "category_id": 1
}
{
 "category": "按摩", 
 "rating": 0.0, 
 "lat": "13.6866139", 
 "name": "Mania Sauna", 
 "phone": "Telephone", 
 "city_id": "1", 
 "photos": null, 
 "avgprice": null, 
 "office_hours": "玛利亚桑拿", 
 "shop_id": 1135, 
 "address": "35,2号SoiPipatIICoventRoadSilomBangrak,Bangkok", 
 "city_name": "曼谷", 
 "lng": "100.4502264", 
 "category_id": 1
}
{
 "category": "按摩", 
 "rating": 0.0, 
 "lat": "13.822763", 
 "name": "Relax", 
 "phone": "Telephone", 
 "city_id": "1", 
 "photos": null, 
 "avgprice": null, 
 "office_hours": "尚无营业时间", 
 "shop_id": 1136, 
 "address": "Supalaipark3,จตุจักร,กรุงเทพมหานคร,ประเทศไทย", 
 "city_name": "曼谷", 
 "lng": "100.563464", 
 "category_id": 1
}
{
 "category": "按摩", 
 "rating": 0.0, 
 "lat": "13.7476526666433", 
 "name": "Relax Platinum Massage", 
 "phone": "Telephone", 
 "city_id": "1", 
 "photos": null, 
 "avgprice": null, 
 "office_hours": "尚无营业时间", 
 "shop_id": 1137, 
 "address": "PlatinumFashionMallB1,พระนคร,กรุงเทพมหานคร,ประเทศไทย", 
 "city_name": "曼谷", 
 "lng": "100.53916993551", 
 "category_id": 1
}
{
 "category": "按摩", 
 "rating": 0.0, 
 "lat": "13.728884", 
 "name": "Angel Massage", 
 "phone": "+66 2 665 6265", 
 "city_id": "1", 
 "photos": null, 
 "avgprice": null, 
 "office_hours": "尚无营业时间", 
 "shop_id": 1138, 
 "address": "6/7-8Sukhumvit26(attheendofSoi24/1),คลองเตย,กรุงเทพมหานคร10110,ประเทศไทย", 
 "city_name": "曼谷", 
 "lng": "100.570454", 
 "category_id": 1
}
{
 "category": "按摩", 
 "rating": 0.0, 
 "lat": "13.729778216776689", 
 "name": "Body Care Massage", 
 "phone": "Telephone", 
 "city_id": "1", 
 "photos": null, 
 "avgprice": null, 
 "office_hours": "尚无营业时间", 
 "shop_id": 1139, 
 "address": "SuriwongRoad(SuriwongPlaza),พระนคร,กรุงเทพมหานคร,ประเทศไทย", 
 "city_name": "曼谷", 
 "lng": "100.53244326392864", 
 "category_id": 1
}
{
 "category": "按摩", 
 "rating": 0.0, 
 "lat": "13.705305887555204", 
 "name": "Spaland", 
 "phone": "Telephone", 
 "city_id": "1", 
 "photos": null, 
 "avgprice": null, 
 "office_hours": "尚无营业时间", 
 "shop_id": 1140, 
 "address": "พระนคร,กรุงเทพมหานคร,ประเทศไทย", 
 "city_name": "曼谷", 
 "lng": "100.50595831270071", 
 "category_id": 1
}
{
 "category": "按摩", 
 "rating": 0.0, 
 "lat": "13.719705", 
 "name": "Thong Massage Shop Avion Village", 
 "phone": "Telephone", 
 "city_id": "1", 
 "photos": null, 
 "avgprice": null, 
 "office_hours": "尚无营业时间", 
 "shop_id": 1141, 
 "address": "RachaThewa,สมุทรปราการ,ประเทศไทย", 
 "city_name": "曼谷", 
 "lng": "100.773829", 
 "category_id": 1
}
{
 "category": "按摩", 
 "rating": 0.0, 
 "lat": "13.77566427910564", 
 "name": "Body Shape", 
 "phone": "Telephone", 
 "city_id": "1", 
 "photos": null, 
 "avgprice": null, 
 "office_hours": "尚无营业时间", 
 "shop_id": 1142, 
 "address": "SiamParagon(Patumwan),Pathumwan,กรุงเทพมหานคร,ประเทศไทย", 
 "city_name": "曼谷", 
 "lng": "100.57331164544536", 
 "category_id": 1
}
{
 "category": "按摩", 
 "rating": 0.0, 
 "lat": "13.744356523447236", 
 "name": "Meet Nails & Spa", 
 "phone": "Telephone", 
 "city_id": "1", 
 "photos": null, 
 "avgprice": null, 
 "office_hours": "尚无营业时间", 
 "shop_id": 1143, 
 "address": "SiamSquareSoi5,ปทุมวัน,กรุงเทพมหานคร,ประเทศไทย", 
 "city_name": "曼谷", 
 "lng": "100.5342780503094", 
 "category_id": 1
}
{
 "category": "按摩", 
 "rating": 0.0, 
 "lat": "13.747413", 
 "name": "True Spa", 
 "phone": "66 (0) 2610 0959", 
 "city_id": "1", 
 "photos": null, 
 "avgprice": null, 
 "office_hours": "尚无营业时间", 
 "shop_id": 1144, 
 "address": "11thFl.,ZENDepartmentStore,RajdamriRoad,Bangkok", 
 "city_name": "曼谷", 
 "lng": "100.54026", 
 "category_id": 1
}
{
 "category": "按摩", 
 "rating": 0.0, 
 "lat": "13.939503", 
 "name": "Pungaysorn Spa", 
 "phone": "+66-2-9968990", 
 "city_id": "1", 
 "photos": null, 
 "avgprice": null, 
 "office_hours": "尚无营业时间", 
 "shop_id": 1145, 
 "address": "ChangYodTower,1stflr.,129/20Moo9,ViphavadiRangsit,SrigunDonmuang10210", 
 "city_name": "曼谷", 
 "lng": "100.613244", 
 "category_id": 1
}
{
 "category": "按摩", 
 "rating": 0.0, 
 "lat": "13.746506", 
 "name": "Thongnoppakun Foot Massage Reflexology", 
 "phone": "Telephone", 
 "city_id": "1", 
 "photos": null, 
 "avgprice": null, 
 "office_hours": "尚无营业时间", 
 "shop_id": 1146, 
 "address": "3rdFloor,SiamDiscoveryCenter(Rama1Road,Patumwan),พระนคร,กรุงเทพมหานคร10330,ประเทศไทย", 
 "city_name": "曼谷", 
 "lng": "100.531702", 
 "category_id": 1
}
{
 "category": "按摩", 
 "rating": 0.0, 
 "lat": "13.743574", 
 "name": "Boonsita Oil＆Body Massage", 
 "phone": "+66 2 252 4780", 
 "city_id": "1", 
 "photos": null, 
 "avgprice": null, 
 "office_hours": "尚无营业时间", 
 "shop_id": 1147, 
 "address": "Sukhumvit1,กรุงเทพมหานคร,ประเทศไทย", 
 "city_name": "曼谷", 
 "lng": "100.55118799209302", 
 "category_id": 1
}
{
 "category": "按摩", 
 "rating": 0.0, 
 "lat": "13.744512", 
 "name": "Tammachart Day Spa", 
 "phone": "+66-2-2098888", 
 "city_id": "1", 
 "photos": null, 
 "avgprice": null, 
 "office_hours": "尚无营业时间", 
 "shop_id": 1148, 
 "address": "NovotelBangkokonSiamSquare,SiamSquareSoi6,Pathumwan,Rama1Rd", 
 "city_name": "曼谷", 
 "lng": "100.534719", 
 "category_id": 1
}
{
 "category": "按摩", 
 "rating": 0.0, 
 "lat": "13.7568868", 
 "name": "Bangkok Massage", 
 "phone": "+66-2-853330708", 
 "city_id": "1", 
 "photos": null, 
 "avgprice": null, 
 "office_hours": "尚无营业时间", 
 "shop_id": 1149, 
 "address": "256,Soi3,RatchadaphisekRoad", 
 "city_name": "曼谷", 
 "lng": "100.564759", 
 "category_id": 1
}
{
 "category": "按摩", 
 "rating": 0.0, 
 "lat": "13.804459", 
 "name": "MorebeauTe Beauty for Healthy", 
 "phone": "Telephone", 
 "city_id": "1", 
 "photos": null, 
 "avgprice": null, 
 "office_hours": "尚无营业时间", 
 "shop_id": 1150, 
 "address": "1111/7บ้านกลางเมือง(รัชดา-ลาดพร้าว)(ลาดพร้าว),พระนคร,กรุงเทพมหานคร10900,ประเทศไทย", 
 "city_name": "曼谷", 
 "lng": "100.577481", 
 "category_id": 1
}
{
 "category": "按摩", 
 "rating": 0.0, 
 "lat": "13.738926", 
 "name": "Guy Spa", 
 "phone": "+66-2-6513568", 
 "city_id": "1", 
 "photos": null, 
 "avgprice": null, 
 "office_hours": "尚无营业时间", 
 "shop_id": 1151, 
 "address": "SoiWatthana,KhlongTanNuea,Vadhana", 
 "city_name": "曼谷", 
 "lng": "100.560704", 
 "category_id": 1
}
{
 "category": "按摩", 
 "rating": 0.0, 
 "lat": "13.744383", 
 "name": "Hydrohealth", 
 "phone": "Telephone", 
 "city_id": "1", 
 "photos": null, 
 "avgprice": null, 
 "office_hours": "尚无营业时间", 
 "shop_id": 1152, 
 "address": "ErawanPlaza(Rajdamri),ลุมพินี,กรุงเทพมหานคร,ประเทศไทย", 
 "city_name": "曼谷", 
 "lng": "100.54099", 
 "category_id": 1
}
{
 "category": "按摩", 
 "rating": 0.0, 
 "lat": "13.758789", 
 "name": "Punchita Spa Aroma Massaging Room 1st Floor", 
 "phone": "+66 2 735 0617", 
 "city_id": "1", 
 "photos": null, 
 "avgprice": null, 
 "office_hours": "尚无营业时间", 
 "shop_id": 1153, 
 "address": "Suansonvillage((Ramkhamhaeng60)),HuaMak,กรุงเทพมหานคร10240,ประเทศไทย", 
 "city_name": "曼谷", 
 "lng": "100.6500005722046", 
 "category_id": 1
}
{
 "category": "按摩", 
 "rating": 0.0, 
 "lat": "13.747666", 
 "name": "Amrita Spa", 
 "phone": "+66-2-2530123", 
 "city_id": "1", 
 "photos": null, 
 "avgprice": null, 
 "office_hours": "尚无营业时间", 
 "shop_id": 1154, 
 "address": "NaiLertParkHotel,2WirelessRoad10330", 
 "city_name": "曼谷", 
 "lng": "100.547186", 
 "category_id": 1
}
{
 "category": "按摩", 
 "rating": 0.0, 
 "lat": "13.753400512659884", 
 "name": "Spa", 
 "phone": "Telephone", 
 "city_id": "1", 
 "photos": null, 
 "avgprice": null, 
 "office_hours": "尚无营业时间", 
 "shop_id": 1155, 
 "address": "MahaNak,พระนคร,กรุงเทพมหานคร,ประเทศไทย", 
 "city_name": "曼谷", 
 "lng": "100.51690947756282", 
 "category_id": 1
}
{
 "category": "按摩", 
 "rating": 0.0, 
 "lat": "13.745814", 
 "name": "SEREVANA Products Co., Ltd.", 
 "phone": "+66 81 816 3669", 
 "city_id": "1", 
 "photos": null, 
 "avgprice": null, 
 "office_hours": "尚无营业时间", 
 "shop_id": 1156, 
 "address": "CentralWorld(ZEN),2ndFloor,พระนคร,กรุงเทพมหานคร10110,ประเทศไทย", 
 "city_name": "曼谷", 
 "lng": "100.539839", 
 "category_id": 1
}
{
 "category": "按摩", 
 "rating": 0.0, 
 "lat": "13.724877", 
 "name": "Apsara Day Spa", 
 "phone": "+66-2-6326887", 
 "city_id": "1", 
 "photos": null, 
 "avgprice": null, 
 "office_hours": "尚无营业时间", 
 "shop_id": 1157, 
 "address": "12/1-2SilomRoad,Bangrak", 
 "city_name": "曼谷", 
 "lng": "100.525675", 
 "category_id": 1
}
{
 "category": "按摩", 
 "rating": 0.0, 
 "lat": "13.746480967302432", 
 "name": "THANNnative", 
 "phone": "Telephone", 
 "city_id": "1", 
 "photos": null, 
 "avgprice": null, 
 "office_hours": "尚无营业时间", 
 "shop_id": 1158, 
 "address": "SIAMDISCOVERY,วังใหม่,กรุงเทพมหานคร,ประเทศไทย", 
 "city_name": "曼谷", 
 "lng": "100.5315148979696", 
 "category_id": 1
}
{
 "category": "按摩", 
 "rating": 0.0, 
 "lat": "13.745282", 
 "name": "LAVAN BANGKOK", 
 "phone": "Telephone", 
 "city_id": "1", 
 "photos": null, 
 "avgprice": null, 
 "office_hours": "尚无营业时间", 
 "shop_id": 1159, 
 "address": "พระนคร,กรุงเทพมหานคร,ประเทศไทย", 
 "city_name": "曼谷", 
 "lng": "100.541405", 
 "category_id": 1
}
{
 "category": "按摩", 
 "rating": 0.0, 
 "lat": "13.739314176723102", 
 "name": "Nillada II Grand Lang Suan", 
 "phone": "Telephone", 
 "city_id": "1", 
 "photos": null, 
 "avgprice": null, 
 "office_hours": "尚无营业时间", 
 "shop_id": 1160, 
 "address": "LangSuan,ลุมพินี,กรุงเทพมหานคร,ประเทศไทย", 
 "city_name": "曼谷", 
 "lng": "100.542958075745", 
 "category_id": 1
}
{
 "category": "按摩", 
 "rating": 0.0, 
 "lat": "13.72409396886046", 
 "name": "GQ Massage", 
 "phone": "Telephone", 
 "city_id": "1", 
 "photos": null, 
 "avgprice": null, 
 "office_hours": "尚无营业时间", 
 "shop_id": 1161, 
 "address": "253/4SuanPhlusoi6,พระนคร,กรุงเทพมหานคร,ประเทศไทย", 
 "city_name": "曼谷", 
 "lng": "100.544902953427", 
 "category_id": 1
}
{
 "category": "按摩", 
 "rating": 0.0, 
 "lat": "13.81652419201237", 
 "name": "My Nail", 
 "phone": "Telephone", 
 "city_id": "1", 
 "photos": null, 
 "avgprice": null, 
 "office_hours": "尚无营业时间", 
 "shop_id": 1162, 
 "address": "CentralPlazaLardprao,จตุจักร,กรุงเทพมหานคร10900,ประเทศไทย", 
 "city_name": "曼谷", 
 "lng": "100.56127122377966", 
 "category_id": 1
}
{
 "category": "按摩", 
 "rating": 0.0, 
 "lat": "13.741365", 
 "name": "SPA 1930", 
 "phone": "+66-2-022548606", 
 "city_id": "1", 
 "photos": null, 
 "avgprice": null, 
 "office_hours": "9:30-21:30", 
 "shop_id": 1163, 
 "address": "42SoiTonson", 
 "city_name": "曼谷", 
 "lng": "100.544762", 
 "category_id": 1
}
{
 "category": "按摩", 
 "rating": 0.0, 
 "lat": "13.74686113774546", 
 "name": "Slim Up Center", 
 "phone": "Telephone", 
 "city_id": "1", 
 "photos": null, 
 "avgprice": null, 
 "office_hours": "尚无营业时间", 
 "shop_id": 1164, 
 "address": "CentralWorld(4thFl.),Pathumwan,กรุงเทพมหานคร10330,ประเทศไทย", 
 "city_name": "曼谷", 
 "lng": "100.539952936111", 
 "category_id": 1
}
{
 "category": "按摩", 
 "rating": 0.0, 
 "lat": "13.737352", 
 "name": "The Grande Spa", 
 "phone": "+66-2-6498269", 
 "city_id": "1", 
 "photos": null, 
 "avgprice": null, 
 "office_hours": "尚无营业时间", 
 "shop_id": 1165, 
 "address": "SheratonGrandeSukhumvitHotel,250SukhumvitRoad10110", 
 "city_name": "曼谷", 
 "lng": "100.559602", 
 "category_id": 1
}
{
 "category": "按摩", 
 "rating": 0.0, 
 "lat": "13.739927", 
 "name": "Pacific City Club Spa", 
 "phone": "+66-2-6532450", 
 "city_id": "1", 
 "photos": null, 
 "avgprice": null, 
 "office_hours": "尚无营业时间", 
 "shop_id": 1166, 
 "address": "30thfl,TwoPacificPlace,142SukhumvitRd.10110", 
 "city_name": "曼谷", 
 "lng": "100.554836", 
 "category_id": 1
}
{
 "category": "按摩", 
 "rating": 0.0, 
 "lat": "13.738899410368203", 
 "name": "Pawara Massage", 
 "phone": "Telephone", 
 "city_id": "1", 
 "photos": null, 
 "avgprice": null, 
 "office_hours": "尚无营业时间", 
 "shop_id": 1167, 
 "address": "พระนคร,กรุงเทพมหานคร,ประเทศไทย", 
 "city_name": "曼谷", 
 "lng": "100.54011774926472", 
 "category_id": 1
}
{
 "category": "按摩", 
 "rating": 0.0, 
 "lat": "13.7217767", 
 "name": "Princess Bed Chamber", 
 "phone": "Telephone", 
 "city_id": "1", 
 "photos": null, 
 "avgprice": null, 
 "office_hours": "尚无营业时间", 
 "shop_id": 1168, 
 "address": "KrungThonburi,KhlongTonSai,กรุงเทพมหานคร10600,ประเทศไทย", 
 "city_name": "曼谷", 
 "lng": "100.50613145", 
 "category_id": 1
}
{
 "category": "按摩", 
 "rating": 0.0, 
 "lat": "13.759088", 
 "name": "De&apos; Moc Thai Massage", 
 "phone": "Telephone", 
 "city_id": "1", 
 "photos": null, 
 "avgprice": null, 
 "office_hours": "尚无营业时间", 
 "shop_id": 1169, 
 "address": "พระนคร,กรุงเทพมหานคร,ประเทศไทย", 
 "city_name": "曼谷", 
 "lng": "100.497173", 
 "category_id": 1
}
{
 "category": "按摩", 
 "rating": 0.0, 
 "lat": "13.746808", 
 "name": "Harnn Heritage Spa", 
 "phone": "Telephone", 
 "city_id": "1", 
 "photos": null, 
 "avgprice": null, 
 "office_hours": "尚无营业时间", 
 "shop_id": 1170, 
 "address": "SiamParagonUnit4334/F", 
 "city_name": "曼谷", 
 "lng": "100.535034", 
 "category_id": 1
}
{
 "category": "按摩", 
 "rating": 0.0, 
 "lat": "13.618368", 
 "name": "BronzeDaySpa@Central", 
 "phone": "Telephone", 
 "city_id": "1", 
 "photos": null, 
 "avgprice": null, 
 "office_hours": "尚无营业时间", 
 "shop_id": 1171, 
 "address": "พระนคร,กรุงเทพมหานคร,ประเทศไทย", 
 "city_name": "曼谷", 
 "lng": "100.704042", 
 "category_id": 1
}
{
 "category": "按摩", 
 "rating": 0.0, 
 "lat": "13.75178", 
 "name": "Poj Spa Kar", 
 "phone": "Telephone", 
 "city_id": "1", 
 "photos": null, 
 "avgprice": null, 
 "office_hours": "尚无营业时间", 
 "shop_id": 1172, 
 "address": "433ThTanao", 
 "city_name": "曼谷", 
 "lng": "100.49817", 
 "category_id": 1
}
{
 "category": "按摩", 
 "rating": 0.0, 
 "lat": "13.748556", 
 "name": "Indara Spa and Massage", 
 "phone": "+66-2-6550559", 
 "city_id": "1", 
 "photos": null, 
 "avgprice": null, 
 "office_hours": "尚无营业时间", 
 "shop_id": 1173, 
 "address": "47/3-7Rajdamri1,RajdamriRoad,Patumwan", 
 "city_name": "曼谷", 
 "lng": "100.541478", 
 "category_id": 1
}
{
 "category": "按摩", 
 "rating": 0.0, 
 "lat": "13.721129554965684", 
 "name": "Divana Virtue Spa@Surasak BTS Station", 
 "phone": "Telephone", 
 "city_id": "1", 
 "photos": null, 
 "avgprice": null, 
 "office_hours": "尚无营业时间", 
 "shop_id": 1174, 
 "address": "พระนคร,กรุงเทพมหานคร,ประเทศไทย", 
 "city_name": "曼谷", 
 "lng": "100.52238005826231", 
 "category_id": 1
}
{
 "category": "按摩", 
 "rating": 0.0, 
 "lat": "13.75074465", 
 "name": "Sakura Thai Massage", 
 "phone": "Telephone", 
 "city_id": "1", 
 "photos": null, 
 "avgprice": null, 
 "office_hours": "尚无营业时间", 
 "shop_id": 1175, 
 "address": "ทุ่งพญาไท,กรุงเทพมหานคร,ประเทศไทย", 
 "city_name": "曼谷", 
 "lng": "100.53886117", 
 "category_id": 1
}
{
 "category": "按摩", 
 "rating": 0.0, 
 "lat": "13.721783458313984", 
 "name": "Senses spa", 
 "phone": "Telephone", 
 "city_id": "1", 
 "photos": null, 
 "avgprice": null, 
 "office_hours": "尚无营业时间", 
 "shop_id": 1176, 
 "address": "RadissonHotelBangkokSathorn,Sathorn,กรุงเทพมหานคร,ประเทศไทย", 
 "city_name": "曼谷", 
 "lng": "100.53213563866504", 
 "category_id": 1
}
{
 "category": "按摩", 
 "rating": 0.0, 
 "lat": "13.744037370195606", 
 "name": "Erb Spa@The Myth", 
 "phone": "Telephone", 
 "city_id": "1", 
 "photos": null, 
 "avgprice": null, 
 "office_hours": "尚无营业时间", 
 "shop_id": 1177, 
 "address": "KaysornPlaza,ลุมพินี,กรุงเทพมหานคร,ประเทศไทย", 
 "city_name": "曼谷", 
 "lng": "100.53986503588328", 
 "category_id": 1
}
{
 "category": "按摩", 
 "rating": 0.0, 
 "lat": "13.74652962201828", 
 "name": "Aster Spring @siam Discovery", 
 "phone": "Telephone", 
 "city_id": "1", 
 "photos": null, 
 "avgprice": null, 
 "office_hours": "尚无营业时间", 
 "shop_id": 1178, 
 "address": "พระนคร,กรุงเทพมหานคร,ประเทศไทย", 
 "city_name": "曼谷", 
 "lng": "100.53162476327356", 
 "category_id": 1
}
{
 "category": "按摩", 
 "rating": 0.0, 
 "lat": "13.729547", 
 "name": "O-Chin Massage <3", 
 "phone": "Telephone", 
 "city_id": "1", 
 "photos": null, 
 "avgprice": null, 
 "office_hours": "尚无营业时间", 
 "shop_id": 1179, 
 "address": "SoiSantipap(NaretRoad),พระนคร,กรุงเทพมหานคร10500,ประเทศไทย", 
 "city_name": "曼谷", 
 "lng": "100.525809", 
 "category_id": 1
}
{
 "category": "按摩", 
 "rating": 0.0, 
 "lat": "13.759900019606093", 
 "name": "Jaowchan Massage", 
 "phone": "Telephone", 
 "city_id": "1", 
 "photos": null, 
 "avgprice": null, 
 "office_hours": "尚无营业时间", 
 "shop_id": 1180, 
 "address": "ThanonRangnum,พระนคร,กรุงเทพมหานคร10400,ประเทศไทย", 
 "city_name": "曼谷", 
 "lng": "100.540752", 
 "category_id": 1
}
{
 "category": "按摩", 
 "rating": 0.0, 
 "lat": "13.753732833736668", 
 "name": "Sky Spa", 
 "phone": "Telephone", 
 "city_id": "1", 
 "photos": null, 
 "avgprice": null, 
 "office_hours": "尚无营业时间", 
 "shop_id": 1181, 
 "address": "BaiyokeSkyHotel,RatchapraropRd.,(Ratchaprarop),ราชเทวี,กรุงเทพมหานคร10400,ประเทศไทย", 
 "city_name": "曼谷", 
 "lng": "100.54065614096136", 
 "category_id": 1
}
{
 "category": "按摩", 
 "rating": 0.0, 
 "lat": "13.648132160315592", 
 "name": "TARA Spa&Massage;", 
 "phone": "Telephone", 
 "city_id": "1", 
 "photos": null, 
 "avgprice": null, 
 "office_hours": "尚无营业时间", 
 "shop_id": 1182, 
 "address": "MegaBangna(1stFl.),พระนคร,กรุงเทพมหานคร,ประเทศไทย", 
 "city_name": "曼谷", 
 "lng": "100.68164151215156", 
 "category_id": 1
}
{
 "category": "按摩", 
 "rating": 0.0, 
 "lat": "13.742153", 
 "name": "Choan Chom Health Club & Spa", 
 "phone": "+66-2-2530123", 
 "city_id": "1", 
 "photos": null, 
 "avgprice": null, 
 "office_hours": "尚无营业时间", 
 "shop_id": 1183, 
 "address": "2WIRELESSRoad,Bangkok,10330", 
 "city_name": "曼谷", 
 "lng": "100.546799", 
 "category_id": 1
}
{
 "category": "按摩", 
 "rating": 0.0, 
 "lat": "13.72236509968303", 
 "name": "Mulberry Spa", 
 "phone": "Telephone", 
 "city_id": "1", 
 "photos": null, 
 "avgprice": null, 
 "office_hours": "尚无营业时间", 
 "shop_id": 1184, 
 "address": "Silom,บางรัก,กรุงเทพมหานคร,ประเทศไทย", 
 "city_name": "曼谷", 
 "lng": "100.5172390213732", 
 "category_id": 1
}
{
 "category": "按摩", 
 "rating": 0.0, 
 "lat": "13.74609", 
 "name": "Nail Tek Siam Paragon", 
 "phone": "Telephone", 
 "city_id": "1", 
 "photos": null, 
 "avgprice": null, 
 "office_hours": "尚无营业时间", 
 "shop_id": 1185, 
 "address": "วังใหม่,กรุงเทพมหานคร,ประเทศไทย", 
 "city_name": "曼谷", 
 "lng": "100.534893", 
 "category_id": 1
}
{
 "category": "按摩", 
 "rating": 0.0, 
 "lat": "13.743023163754804", 
 "name": "Your Clinic", 
 "phone": "Telephone", 
 "city_id": "1", 
 "photos": null, 
 "avgprice": null, 
 "office_hours": "尚无营业时间", 
 "shop_id": 1186, 
 "address": "ปทุมวัน,กรุงเทพมหานคร,ประเทศไทย", 
 "city_name": "曼谷", 
 "lng": "100.54128793116068", 
 "category_id": 1
}
{
 "category": "按摩", 
 "rating": 0.0, 
 "lat": "13.761292", 
 "name": "Nail Painting by Yam", 
 "phone": "Telephone", 
 "city_id": "1", 
 "photos": null, 
 "avgprice": null, 
 "office_hours": "尚无营业时间", 
 "shop_id": 1187, 
 "address": "พระนคร,กรุงเทพมหานคร,ประเทศไทย", 
 "city_name": "曼谷", 
 "lng": "100.537009", 
 "category_id": 1
}
{
 "category": "按摩", 
 "rating": 0.0, 
 "lat": "13.8368805290775", 
 "name": "2j Jay Aroma Massage&Spa; @ home", 
 "phone": "Telephone", 
 "city_id": "1", 
 "photos": null, 
 "avgprice": null, 
 "office_hours": "尚无营业时间", 
 "shop_id": 1188, 
 "address": "LumpiniCondoTownRamindra-Navamin,พระนคร,กรุงเทพมหานคร,ประเทศไทย", 
 "city_name": "曼谷", 
 "lng": "100.66348606400004", 
 "category_id": 1
}
{
 "category": "按摩", 
 "rating": 0.0, 
 "lat": "13.751359085503504", 
 "name": "Breeze Spa", 
 "phone": "Telephone", 
 "city_id": "1", 
 "photos": null, 
 "avgprice": null, 
 "office_hours": "尚无营业时间", 
 "shop_id": 1189, 
 "address": "AmariWatergateBangkok,ราชเทวี,กรุงเทพมหานคร,ประเทศไทย", 
 "city_name": "曼谷", 
 "lng": "100.54005731774068", 
 "category_id": 1
}
{
 "category": "按摩", 
 "rating": 0.0, 
 "lat": "13.760527823195895", 
 "name": "Apasra&apos;s Beauty • Slimming • Spa", 
 "phone": "Telephone", 
 "city_id": "1", 
 "photos": null, 
 "avgprice": null, 
 "office_hours": "尚无营业时间", 
 "shop_id": 1190, 
 "address": "3fl.,CentralWorld,จตุจักร,กรุงเทพมหานคร,ประเทศไทย", 
 "city_name": "曼谷", 
 "lng": "100.54251306714814", 
 "category_id": 1
}
{
 "category": "按摩", 
 "rating": 0.0, 
 "lat": "13.747754292217111", 
 "name": "Skin Sense @ Siam Paragon", 
 "phone": "Telephone", 
 "city_id": "1", 
 "photos": null, 
 "avgprice": null, 
 "office_hours": "尚无营业时间", 
 "shop_id": 1191, 
 "address": "พระนคร,กรุงเทพมหานคร,ประเทศไทย", 
 "city_name": "曼谷", 
 "lng": "100.53441538609484", 
 "category_id": 1
}
{
 "category": "按摩", 
 "rating": 0.0, 
 "lat": "13.73982", 
 "name": "T. Thai Massage", 
 "phone": "+66 2 656 7436", 
 "city_id": "1", 
 "photos": null, 
 "avgprice": null, 
 "office_hours": "尚无营业时间", 
 "shop_id": 1192, 
 "address": "23/4SukhumvitSoi4,พระนคร,กรุงเทพมหานคร10110,ประเทศไทย", 
 "city_name": "曼谷", 
 "lng": "100.553029", 
 "category_id": 1
}
{
 "category": "按摩", 
 "rating": 0.0, 
 "lat": "13.74701375054562", 
 "name": "ภูชญา Relax room(Puchaya)", 
 "phone": "Telephone", 
 "city_id": "1", 
 "photos": null, 
 "avgprice": null, 
 "office_hours": "尚无营业时间", 
 "shop_id": 1193, 
 "address": "สี่แยกเจริญผล,วังใหม่,กรุงเทพมหานคร,ประเทศไทย", 
 "city_name": "曼谷", 
 "lng": "100.52382946014404", 
 "category_id": 1
}
{
 "category": "按摩", 
 "rating": 0.0, 
 "lat": "13.74507160436929", 
 "name": "Happy Thai Massage", 
 "phone": "Telephone", 
 "city_id": "1", 
 "photos": null, 
 "avgprice": null, 
 "office_hours": "尚无营业时间", 
 "shop_id": 1194, 
 "address": "ThaiMassage,รองเมือง,กรุงเทพมหานคร,ประเทศไทย", 
 "city_name": "曼谷", 
 "lng": "100.52056198768628", 
 "category_id": 1
}
{
 "category": "按摩", 
 "rating": 0.0, 
 "lat": "13.69755340255464", 
 "name": "Happy Massage", 
 "phone": "Telephone", 
 "city_id": "1", 
 "photos": null, 
 "avgprice": null, 
 "office_hours": "尚无营业时间", 
 "shop_id": 1195, 
 "address": "พระนคร,กรุงเทพมหานคร,ประเทศไทย", 
 "city_name": "曼谷", 
 "lng": "100.60513208285494", 
 "category_id": 1
}
{
 "category": "按摩", 
 "rating": 0.0, 
 "lat": "13.73128", 
 "name": "五月按摩馆", 
 "phone": "Telephone", 
 "city_id": "1", 
 "photos": null, 
 "avgprice": null, 
 "office_hours": "尚无营业时间", 
 "shop_id": 1196, 
 "address": "181/1ซอยสุขุมวิท22SukhumvitแขวงคลองเตยเขตคลองเตยBangkok10110泰国", 
 "city_name": "曼谷", 
 "lng": "100.565174", 
 "category_id": 1
}
{
 "category": "按摩", 
 "rating": 0.0, 
 "lat": "13.730536", 
 "name": "The Oasis Spa", 
 "phone": "67 (0) 2262 2122", 
 "city_id": "1", 
 "photos": null, 
 "avgprice": null, 
 "office_hours": "尚无营业时间", 
 "shop_id": 1197, 
 "address": "88SoiSukhumvit51,WattanaBangkok", 
 "city_name": "曼谷", 
 "lng": "100.576202", 
 "category_id": 1
}
{
 "category": "按摩", 
 "rating": 0.0, 
 "lat": "13.775917009681208", 
 "name": "Thai Way Massage", 
 "phone": "Telephone", 
 "city_id": "1", 
 "photos": null, 
 "avgprice": null, 
 "office_hours": "尚无营业时间", 
 "shop_id": 1198, 
 "address": "DinDaeng,กรุงเทพมหานคร10320,ประเทศไทย", 
 "city_name": "曼谷", 
 "lng": "100.57251476379548", 
 "category_id": 1
}
{
 "category": "按摩", 
 "rating": 0.0, 
 "lat": "13.747794", 
 "name": "DHC Siam Paragon", 
 "phone": "Telephone", 
 "city_id": "1", 
 "photos": null, 
 "avgprice": null, 
 "office_hours": "尚无营业时间", 
 "shop_id": 1199, 
 "address": "กรุงเทพมหานคร,ประเทศไทย", 
 "city_name": "曼谷", 
 "lng": "100.534413", 
 "category_id": 1
}
{
 "category": "按摩", 
 "rating": 0.0, 
 "lat": "13.740833", 
 "name": "Catherine Spa", 
 "phone": "Telephone", 
 "city_id": "1", 
 "photos": null, 
 "avgprice": null, 
 "office_hours": "尚无营业时间", 
 "shop_id": 1200, 
 "address": "23/34-35CentralStationTowerUnit2B,Floor2(TreemitRd,Taradnoi,Samphantawong),พระนคร,กรุงเทพมหานคร,ประเทศไทย", 
 "city_name": "曼谷", 
 "lng": "100.517153", 
 "category_id": 1
}
{
 "category": "按摩", 
 "rating": 0.0, 
 "lat": "13.729634639290609", 
 "name": "Apinya Salon Massage&Spa;", 
 "phone": "Telephone", 
 "city_id": "1", 
 "photos": null, 
 "avgprice": null, 
 "office_hours": "尚无营业时间", 
 "shop_id": 1201, 
 "address": "พระนคร,กรุงเทพมหานคร,ประเทศไทย", 
 "city_name": "曼谷", 
 "lng": "100.53060302102352", 
 "category_id": 1
}
{
 "category": "按摩", 
 "rating": 0.0, 
 "lat": "13.713102", 
 "name": "Schon : Thai massage & Spa", 
 "phone": "Telephone", 
 "city_id": "1", 
 "photos": null, 
 "avgprice": null, 
 "office_hours": "尚无营业时间", 
 "shop_id": 1202, 
 "address": "Yannawa,กรุงเทพมหานคร,ประเทศไทย", 
 "city_name": "曼谷", 
 "lng": "100.515342", 
 "category_id": 1
}
{
 "category": "按摩", 
 "rating": 0.0, 
 "lat": "13.729589654542677", 
 "name": "Ariya Spa", 
 "phone": "Telephone", 
 "city_id": "1", 
 "photos": null, 
 "avgprice": null, 
 "office_hours": "尚无营业时间", 
 "shop_id": 1203, 
 "address": "DeArniBangkok(Surawong),บางรัก,กรุงเทพมหานคร,ประเทศไทย", 
 "city_name": "曼谷", 
 "lng": "100.53035033383482", 
 "category_id": 1
}
{
 "category": "按摩", 
 "rating": 0.0, 
 "lat": "13.744625098083374", 
 "name": "Tammachart Spa | Novotel Siam", 
 "phone": "Telephone", 
 "city_id": "1", 
 "photos": null, 
 "avgprice": null, 
 "office_hours": "尚无营业时间", 
 "shop_id": 1204, 
 "address": "พระนคร,กรุงเทพมหานคร,ประเทศไทย", 
 "city_name": "曼谷", 
 "lng": "100.5348164077643", 
 "category_id": 1
}
{
 "category": "按摩", 
 "rating": 0.0, 
 "lat": "13.735571", 
 "name": "True Spa", 
 "phone": "66 (0) 2663 5999", 
 "city_id": "1", 
 "photos": null, 
 "avgprice": null, 
 "office_hours": "尚无营业时间", 
 "shop_id": 1205, 
 "address": "3rdFl.,ExchangeTower,SukhumvitRoad,Bangkok", 
 "city_name": "曼谷", 
 "lng": "100.561686", 
 "category_id": 1
}
{
 "category": "按摩", 
 "rating": 0.0, 
 "lat": "13.707608614776143", 
 "name": "Soi Massage 77/1 - On Nut", 
 "phone": "Telephone", 
 "city_id": "1", 
 "photos": null, 
 "avgprice": null, 
 "office_hours": "尚无营业时间", 
 "shop_id": 1206, 
 "address": "Sukhumvit77/1,พระนคร,กรุงเทพมหานคร,ประเทศไทย", 
 "city_name": "曼谷", 
 "lng": "100.6013717639246", 
 "category_id": 1
}
{
 "category": "按摩", 
 "rating": 0.0, 
 "lat": "13.709642", 
 "name": "Mano Massage and Spa", 
 "phone": "+66-2-4393152", 
 "city_id": "1", 
 "photos": null, 
 "avgprice": null, 
 "office_hours": "尚无营业时间", 
 "shop_id": 1207, 
 "address": "ThanonCharoenNakhon,KhlongSan", 
 "city_name": "曼谷", 
 "lng": "100.495996", 
 "category_id": 1
}
{
 "category": "按摩", 
 "rating": 0.0, 
 "lat": "13.815786", 
 "name": "Centara Spa Bangkok", 
 "phone": "+66-2-5411234", 
 "city_id": "1", 
 "photos": null, 
 "avgprice": null, 
 "office_hours": "尚无营业时间", 
 "shop_id": 1208, 
 "address": "SofitelCentralPlaza,1stfl,1695PhaholyothinRoad10900", 
 "city_name": "曼谷", 
 "lng": "100.560007", 
 "category_id": 1
}
{
 "category": "按摩", 
 "rating": 0.0, 
 "lat": "13.726899", 
 "name": "Fanclub Massage", 
 "phone": "+66-2-6311442", 
 "city_id": "1", 
 "photos": null, 
 "avgprice": null, 
 "office_hours": "尚无营业时间", 
 "shop_id": 1209, 
 "address": "SoiSalaDaeng2,BangRak,Silom", 
 "city_name": "曼谷", 
 "lng": "100.533045", 
 "category_id": 1
}
{
 "category": "按摩", 
 "rating": 0.0, 
 "lat": "13.72746636590415", 
 "name": "M Hair Spa Salon @ITF", 
 "phone": "Telephone", 
 "city_id": "1", 
 "photos": null, 
 "avgprice": null, 
 "office_hours": "尚无营业时间", 
 "shop_id": 1210, 
 "address": "พระนคร,กรุงเทพมหานคร,ประเทศไทย", 
 "city_name": "曼谷", 
 "lng": "100.52766969521034", 
 "category_id": 1
}
{
 "category": "按摩", 
 "rating": 0.0, 
 "lat": "13.754931", 
 "name": "曼谷国际禅修中心", 
 "phone": "+66-2-6236326", 
 "city_id": "1", 
 "photos": null, 
 "avgprice": null, 
 "office_hours": "InternationalBuddhistMeditationCentre", 
 "shop_id": 1211, 
 "address": "VipassanaSection106,3ThMaharat", 
 "city_name": "曼谷", 
 "lng": "100.490036", 
 "category_id": 1
}
{
 "category": "按摩", 
 "rating": 0.0, 
 "lat": "13.724110810401656", 
 "name": "Legend Massage", 
 "phone": "Telephone", 
 "city_id": "1", 
 "photos": null, 
 "avgprice": null, 
 "office_hours": "尚无营业时间", 
 "shop_id": 1212, 
 "address": "66Sathon6(LegendThaiBoxing)(Sathon),พระนคร,กรุงเทพมหานคร,ประเทศไทย", 
 "city_name": "曼谷", 
 "lng": "100.53408028713942", 
 "category_id": 1
}
{
 "category": "按摩", 
 "rating": 0.0, 
 "lat": "13.723527", 
 "name": "Benten Fashion Massage", 
 "phone": "+66 2 634 2912", 
 "city_id": "1", 
 "photos": null, 
 "avgprice": null, 
 "office_hours": "尚无营业时间", 
 "shop_id": 1213, 
 "address": "128/8,SoiSilom6,บางรัก,กรุงเทพมหานคร10500,ประเทศไทย", 
 "city_name": "曼谷", 
 "lng": "100.533329", 
 "category_id": 1
}
{
 "category": "按摩", 
 "rating": 0.0, 
 "lat": "13.744240647021869", 
 "name": "Nail&apos;s cafe", 
 "phone": "Telephone", 
 "city_id": "1", 
 "photos": null, 
 "avgprice": null, 
 "office_hours": "尚无营业时间", 
 "shop_id": 1214, 
 "address": "Siamcentre,ปทุมวัน,กรุงเทพมหานคร,ประเทศไทย", 
 "city_name": "曼谷", 
 "lng": "100.53154785754695", 
 "category_id": 1
}
{
 "category": "按摩", 
 "rating": 0.0, 
 "lat": "13.743443", 
 "name": "Tantara Spa @ Prathumwan Princess", 
 "phone": "Telephone", 
 "city_id": "1", 
 "photos": null, 
 "avgprice": null, 
 "office_hours": "尚无营业时间", 
 "shop_id": 1215, 
 "address": "พระนคร,กรุงเทพมหานคร10330,ประเทศไทย", 
 "city_name": "曼谷", 
 "lng": "100.529837", 
 "category_id": 1
}
{
 "category": "按摩", 
 "rating": 0.0, 
 "lat": "13.688475", 
 "name": "เฟรนด์ชิป สุขสัมผัสนวดแผนโบราณ FriendshipMassage", 
 "phone": "+66-2-4558678", 
 "city_id": "1", 
 "photos": null, 
 "avgprice": null, 
 "office_hours": "尚无营业时间", 
 "shop_id": 1216, 
 "address": "47/35-39,ภาษีเจริญ", 
 "city_name": "曼谷", 
 "lng": "100.36427", 
 "category_id": 1
}
{
 "category": "按摩", 
 "rating": 0.0, 
 "lat": "13.732106", 
 "name": "Body tune", 
 "phone": "Telephone", 
 "city_id": "1", 
 "photos": null, 
 "avgprice": null, 
 "office_hours": "尚无营业时间", 
 "shop_id": 1217, 
 "address": "Sukhumvit39,พระนคร,กรุงเทพมหานคร,ประเทศไทย", 
 "city_name": "曼谷", 
 "lng": "100.571576", 
 "category_id": 1
}
{
 "category": "按摩", 
 "rating": 0.0, 
 "lat": "13.726566", 
 "name": "Moku Foot and Body Massage", 
 "phone": "+66 2 663 4125", 
 "city_id": "1", 
 "photos": null, 
 "avgprice": null, 
 "office_hours": "Mon–Sun:9:00AM–9:00PM", 
 "shop_id": 1218, 
 "address": "106/7Sukhumvit22,คลองเตย,กรุงเทพมหานคร10110,ประเทศไทย", 
 "city_name": "曼谷", 
 "lng": "100.565095", 
 "category_id": 1
}
{
 "category": "按摩", 
 "rating": 0.0, 
 "lat": "13.761951783898558", 
 "name": "True Plookrak Spa @True Tower 23rd", 
 "phone": "Telephone", 
 "city_id": "1", 
 "photos": null, 
 "avgprice": null, 
 "office_hours": "尚无营业时间", 
 "shop_id": 1219, 
 "address": "พระนคร,กรุงเทพมหานคร,ประเทศไทย", 
 "city_name": "曼谷", 
 "lng": "100.56804685847248", 
 "category_id": 1
}
{
 "category": "按摩", 
 "rating": 0.0, 
 "lat": "13.76212", 
 "name": "sabai body spa pra athit", 
 "phone": "Telephone", 
 "city_id": "1", 
 "photos": null, 
 "avgprice": null, 
 "office_hours": "尚无营业时间", 
 "shop_id": 1220, 
 "address": "พระนคร,กรุงเทพมหานคร,ประเทศไทย", 
 "city_name": "曼谷", 
 "lng": "100.494239", 
 "category_id": 1
}
{
 "category": "按摩", 
 "rating": 0.0, 
 "lat": "13.730609731025227", 
 "name": "Bonny Massage", 
 "phone": "Telephone", 
 "city_id": "1", 
 "photos": null, 
 "avgprice": null, 
 "office_hours": "尚无营业时间", 
 "shop_id": 1221, 
 "address": "894/7-8SoiPratuchaiRama4Rd.,บางรัก,กรุงเทพมหานคร10500,ประเทศไทย", 
 "city_name": "曼谷", 
 "lng": "100.53247690200806", 
 "category_id": 1
}
{
 "category": "按摩", 
 "rating": 0.0, 
 "lat": "13.73694782365748", 
 "name": "4 Zen Thai Massage", 
 "phone": "Telephone", 
 "city_id": "1", 
 "photos": null, 
 "avgprice": null, 
 "office_hours": "尚无营业时间", 
 "shop_id": 1222, 
 "address": "คลองเตย,กรุงเทพมหานคร,ประเทศไทย", 
 "city_name": "曼谷", 
 "lng": "100.5600788076402", 
 "category_id": 1
}
{
 "category": "按摩", 
 "rating": 0.0, 
 "lat": "13.75742265538712", 
 "name": "Touch your mind massage", 
 "phone": "Telephone", 
 "city_id": "1", 
 "photos": null, 
 "avgprice": null, 
 "office_hours": "尚无营业时间", 
 "shop_id": 1223, 
 "address": "Payathai,พระนคร,กรุงเทพมหานคร,ประเทศไทย", 
 "city_name": "曼谷", 
 "lng": "100.53382209697544", 
 "category_id": 1
}
{
 "category": "按摩", 
 "rating": 0.0, 
 "lat": "13.722089", 
 "name": "Chambaala", 
 "phone": "Telephone", 
 "city_id": "1", 
 "photos": null, 
 "avgprice": null, 
 "office_hours": "尚无营业时间", 
 "shop_id": 1224, 
 "address": "TheLightHouse(1stFl.),คลองสาน,กรุงเทพมหานคร10600,ประเทศไทย", 
 "city_name": "曼谷", 
 "lng": "100.508921", 
 "category_id": 1
}
{
 "category": "按摩", 
 "rating": 0.0, 
 "lat": "13.750125", 
 "name": "CTW Thai Massage | B Floor", 
 "phone": "Telephone", 
 "city_id": "1", 
 "photos": null, 
 "avgprice": null, 
 "office_hours": "尚无营业时间", 
 "shop_id": 1225, 
 "address": "พระนคร,กรุงเทพมหานคร,ประเทศไทย", 
 "city_name": "曼谷", 
 "lng": "100.539488", 
 "category_id": 1
}
{
 "category": "按摩", 
 "rating": 0.0, 
 "lat": "13.777947", 
 "name": "GM Massage", 
 "phone": "+66-2-6198578", 
 "city_id": "1", 
 "photos": null, 
 "avgprice": null, 
 "office_hours": "尚无营业时间", 
 "shop_id": 1226, 
 "address": "10/26,PhaholYothin5,SoiRatchakru", 
 "city_name": "曼谷", 
 "lng": "100.541845", 
 "category_id": 1
}
{
 "category": "按摩", 
 "rating": 0.0, 
 "lat": "13.759984668630354", 
 "name": "The High Spa", 
 "phone": "Telephone", 
 "city_id": "1", 
 "photos": null, 
 "avgprice": null, 
 "office_hours": "Mon–Sun:10:00AM–9:00PM", 
 "shop_id": 1227, 
 "address": "TheNinthTower(2ndFloor)(Rama9),พระนคร,กรุงเทพมหานคร10310,ประเทศไทย", 
 "city_name": "曼谷", 
 "lng": "100.5678435272232", 
 "category_id": 1
}
{
 "category": "按摩", 
 "rating": 0.0, 
 "lat": "13.779213", 
 "name": "Pretty Lover Spa", 
 "phone": "+66-2-809025000", 
 "city_id": "1", 
 "photos": null, 
 "avgprice": null, 
 "office_hours": "尚无营业时间", 
 "shop_id": 1228, 
 "address": "ติดถนนใหญ่รัชดาภิเษกติดสถานีรถไฟฟ้าใต้ดินสถานีห้วยขวาง,ติดพระภิคเนตรห้วยขวางถนนรัชดาภิเษกกรุงเทพ", 
 "city_name": "曼谷", 
 "lng": "100.573117", 
 "category_id": 1
}
{
 "category": "按摩", 
 "rating": 0.0, 
 "lat": "13.695659", 
 "name": "Thai Jasmine Spa Co., Ltd.", 
 "phone": "Telephone", 
 "city_id": "1", 
 "photos": null, 
 "avgprice": null, 
 "office_hours": "尚无营业时间", 
 "shop_id": 1229, 
 "address": "2534/233WillyHouse,3Floor,TrokNorkKhet,Bangklo,Bangkorlaem,Bangkok,10120", 
 "city_name": "曼谷", 
 "lng": "100.513086", 
 "category_id": 1
}
{
 "category": "按摩", 
 "rating": 0.0, 
 "lat": "13.720097", 
 "name": "Happy-J Nail Spa", 
 "phone": "Telephone", 
 "city_id": "1", 
 "photos": null, 
 "avgprice": null, 
 "office_hours": "尚无营业时间", 
 "shop_id": 1230, 
 "address": "Satorn,พระนคร,กรุงเทพมหานคร,ประเทศไทย", 
 "city_name": "曼谷", 
 "lng": "100.521373", 
 "category_id": 1
}
{
 "category": "按摩", 
 "rating": 0.0, 
 "lat": "13.7294039", 
 "name": "Devarana Spa", 
 "phone": "Telephone", 
 "city_id": "1", 
 "photos": null, 
 "avgprice": null, 
 "office_hours": "尚无营业时间", 
 "shop_id": 1231, 
 "address": "946RamaIVRoad,Silom,Bangrak10500,10500泰国", 
 "city_name": "曼谷", 
 "lng": "100.536704", 
 "category_id": 1
}
{
 "category": "按摩", 
 "rating": 0.0, 
 "lat": "13.72212386644686", 
 "name": "Mani & Pedi Nail Spa", 
 "phone": "Telephone", 
 "city_id": "1", 
 "photos": null, 
 "avgprice": null, 
 "office_hours": "尚无营业时间", 
 "shop_id": 1232, 
 "address": "StateTower,พระนคร,กรุงเทพมหานคร,ประเทศไทย", 
 "city_name": "曼谷", 
 "lng": "100.5169589090588", 
 "category_id": 1
}
{
 "category": "按摩", 
 "rating": 0.0, 
 "lat": "13.743658862560538", 
 "name": "Beauty de Kose @ Tokyu department store", 
 "phone": "Telephone", 
 "city_id": "1", 
 "photos": null, 
 "avgprice": null, 
 "office_hours": "尚无营业时间", 
 "shop_id": 1233, 
 "address": "ปทุมวัน,กรุงเทพมหานคร10330,ประเทศไทย", 
 "city_name": "曼谷", 
 "lng": "100.52962523533108", 
 "category_id": 1
}
{
 "category": "按摩", 
 "rating": 0.0, 
 "lat": "13.741545", 
 "name": "Spa@Tonson", 
 "phone": "Telephone", 
 "city_id": "1", 
 "photos": null, 
 "avgprice": null, 
 "office_hours": "尚无营业时间", 
 "shop_id": 1234, 
 "address": "พระนคร,กรุงเทพมหานคร,ประเทศไทย", 
 "city_name": "曼谷", 
 "lng": "100.545744", 
 "category_id": 1
}
{
 "category": "按摩", 
 "rating": 0.0, 
 "lat": "13.74673840737077", 
 "name": "Kanika", 
 "phone": "Telephone", 
 "city_id": "1", 
 "photos": null, 
 "avgprice": null, 
 "office_hours": "尚无营业时间", 
 "shop_id": 1235, 
 "address": "พระนคร,กรุงเทพมหานคร,ประเทศไทย", 
 "city_name": "曼谷", 
 "lng": "100.54020015595248", 
 "category_id": 1
}
{
 "category": "按摩", 
 "rating": 0.0, 
 "lat": "13.784971", 
 "name": "Boonraksa Authentic Therapy Massage", 
 "phone": "+66 82 054 8882", 
 "city_id": "1", 
 "photos": null, 
 "avgprice": null, 
 "office_hours": "尚无营业时间", 
 "shop_id": 1236, 
 "address": "Ladprao101Yaek36(LadpraoRoad),พระนคร,กรุงเทพมหานคร10240,ประเทศไทย", 
 "city_name": "曼谷", 
 "lng": "100.633487", 
 "category_id": 1
}
{
 "category": "按摩", 
 "rating": 0.0, 
 "lat": "13.746836288708018", 
 "name": "Sparsha Slimming Center", 
 "phone": "Telephone", 
 "city_id": "1", 
 "photos": null, 
 "avgprice": null, 
 "office_hours": "尚无营业时间", 
 "shop_id": 1237, 
 "address": "CentralWorld(Ratchaprasong),พระนคร,กรุงเทพมหานคร,ประเทศไทย", 
 "city_name": "曼谷", 
 "lng": "100.54026058757051", 
 "category_id": 1
}
{
 "category": "按摩", 
 "rating": 0.0, 
 "lat": "13.777673587368689", 
 "name": "Men&apos;s Care amember of Marie France Bodyline", 
 "phone": "Telephone", 
 "city_id": "1", 
 "photos": null, 
 "avgprice": null, 
 "office_hours": "尚无营业时间", 
 "shop_id": 1238, 
 "address": "CentralPlazaPinklao,พระนคร,กรุงเทพมหานคร,ประเทศไทย", 
 "city_name": "曼谷", 
 "lng": "100.47579172468257", 
 "category_id": 1
}
{
 "category": "按摩", 
 "rating": 0.0, 
 "lat": "13.7612748737649", 
 "name": "Nail Bar", 
 "phone": "Telephone", 
 "city_id": "1", 
 "photos": null, 
 "avgprice": null, 
 "office_hours": "尚无营业时间", 
 "shop_id": 1239, 
 "address": "พระนคร,กรุงเทพมหานคร,ประเทศไทย", 
 "city_name": "曼谷", 
 "lng": "100.64082423535498", 
 "category_id": 1
}
{
 "category": "按摩", 
 "rating": 0.0, 
 "lat": "13.766076", 
 "name": "Zense of Joy", 
 "phone": "+66 2 660 9315", 
 "city_id": "1", 
 "photos": null, 
 "avgprice": null, 
 "office_hours": "尚无营业时间", 
 "shop_id": 1240, 
 "address": "EsplanadeRatchadaphisek(MFl.),DinDaeng,กรุงเทพมหานคร10400,ประเทศไทย", 
 "city_name": "曼谷", 
 "lng": "100.569854", 
 "category_id": 1
}
{
 "category": "按摩", 
 "rating": 0.0, 
 "lat": "13.892218", 
 "name": "TK. Fitness & Spa", 
 "phone": "+66-2-5741588", 
 "city_id": "1", 
 "photos": null, 
 "avgprice": null, 
 "office_hours": "尚无营业时间", 
 "shop_id": 1241, 
 "address": "54/7Soi15,ChaengwattanaRd.,,LakSi,Bangkok,10210", 
 "city_name": "曼谷", 
 "lng": "100.562087", 
 "category_id": 1
}
{
 "category": "按摩", 
 "rating": 0.0, 
 "lat": "13.888942", 
 "name": "Kulthalee Traditional Thai Massage", 
 "phone": "+66 84 677 7500", 
 "city_id": "1", 
 "photos": null, 
 "avgprice": null, 
 "office_hours": "尚无营业时间", 
 "shop_id": 1242, 
 "address": "OppositeMidaCityResortHotel(ChaengwattanaSoi10),พระนคร,กรุงเทพมหานคร,ประเทศไทย", 
 "city_name": "曼谷", 
 "lng": "100.578708", 
 "category_id": 1
}
{
 "category": "按摩", 
 "rating": 0.0, 
 "lat": "13.739051587150175", 
 "name": "LISA&apos;s Massage", 
 "phone": "Telephone", 
 "city_id": "1", 
 "photos": null, 
 "avgprice": null, 
 "office_hours": "尚无营业时间", 
 "shop_id": 1243, 
 "address": "Sukhumvit19,วัฒนา,กรุงเทพมหานคร10110,ประเทศไทย", 
 "city_name": "曼谷", 
 "lng": "100.56015729904176", 
 "category_id": 1
}
{
 "category": "按摩", 
 "rating": 0.0, 
 "lat": "13.732044721487782", 
 "name": "Chic Nails", 
 "phone": "Telephone", 
 "city_id": "1", 
 "photos": null, 
 "avgprice": null, 
 "office_hours": "尚无营业时间", 
 "shop_id": 1244, 
 "address": "พระนคร,กรุงเทพมหานคร10500,ประเทศไทย", 
 "city_name": "曼谷", 
 "lng": "100.53141052605264", 
 "category_id": 1
}
{
 "category": "按摩", 
 "rating": 0.0, 
 "lat": "13.720181", 
 "name": "Thai Medical Spa Co., Ltd.", 
 "phone": "+66-2-2100190", 
 "city_id": "1", 
 "photos": null, 
 "avgprice": null, 
 "office_hours": "尚无营业时间", 
 "shop_id": 1245, 
 "address": "889ThaiCCTower,Suite32,SouthSathornRd.,,Yannawa,Sathon,Bangkok,10120", 
 "city_name": "曼谷", 
 "lng": "100.525588", 
 "category_id": 1
}
{
 "category": "按摩", 
 "rating": 0.0, 
 "lat": "13.742195", 
 "name": "The Purple Spa & Skin Pamper", 
 "phone": "+66-2-2614429", 
 "city_id": "1", 
 "photos": null, 
 "avgprice": null, 
 "office_hours": "尚无营业时间", 
 "shop_id": 1246, 
 "address": "Sukhumvit,KhlongTanNuea,Vadhana", 
 "city_name": "曼谷", 
 "lng": "100.55296", 
 "category_id": 1
}
{
 "category": "按摩", 
 "rating": 0.0, 
 "lat": "13.761569661653736", 
 "name": "Seda Massage", 
 "phone": "Telephone", 
 "city_id": "1", 
 "photos": null, 
 "avgprice": null, 
 "office_hours": "尚无营业时间", 
 "shop_id": 1247, 
 "address": "Khao-Sarn-RambuttriRd.(Opposite7-Eleven),พระนคร,กรุงเทพมหานคร10200,ประเทศไทย", 
 "city_name": "曼谷", 
 "lng": "100.49605176787392", 
 "category_id": 1
}
{
 "category": "按摩", 
 "rating": 0.0, 
 "lat": "13.723789", 
 "name": "Heaven Sauna", 
 "phone": "+66 2 266 9092", 
 "city_id": "1", 
 "photos": null, 
 "avgprice": null, 
 "office_hours": "尚无营业时间", 
 "shop_id": 1248, 
 "address": "119soiMahesakBISbuilding,Floor4(Silom),พระนคร,กรุงเทพมหานคร10500,ประเทศไทย", 
 "city_name": "曼谷", 
 "lng": "100.519528", 
 "category_id": 1
}
{
 "category": "按摩", 
 "rating": 0.0, 
 "lat": "13.725700445536344", 
 "name": "Ann Semonin Spa @ Sofitel Silom", 
 "phone": "Telephone", 
 "city_id": "1", 
 "photos": null, 
 "avgprice": null, 
 "office_hours": "尚无营业时间", 
 "shop_id": 1249, 
 "address": "188Silomroad,bangrak,Bangkok,Silom,กรุงเทพมหานคร10500,ประเทศไทย", 
 "city_name": "曼谷", 
 "lng": "100.52598334998882", 
 "category_id": 1
}
{
 "category": "按摩", 
 "rating": 0.0, 
 "lat": "13.719794", 
 "name": "Freshy Spa", 
 "phone": "Telephone", 
 "city_id": "1", 
 "photos": null, 
 "avgprice": null, 
 "office_hours": "尚无营业时间", 
 "shop_id": 1250, 
 "address": "ตรงข้ามโรบินสันบางรัก(Charoenkrungrd.),บางรัก,กรุงเทพมหานคร10120,ประเทศไทย", 
 "city_name": "曼谷", 
 "lng": "100.515553", 
 "category_id": 1
}
{
 "category": "按摩", 
 "rating": 0.0, 
 "lat": "13.74449799441925", 
 "name": "Darphin Institut @ Cantral Chidlom", 
 "phone": "Telephone", 
 "city_id": "1", 
 "photos": null, 
 "avgprice": null, 
 "office_hours": "尚无营业时间", 
 "shop_id": 1251, 
 "address": "เพลินจิต,พระนคร,กรุงเทพมหานคร,ประเทศไทย", 
 "city_name": "曼谷", 
 "lng": "100.54465902594254", 
 "category_id": 1
}
{
 "category": "按摩", 
 "rating": 0.0, 
 "lat": "13.725247", 
 "name": "Dhevan Dara Resort & Spa Co.,Ltd", 
 "phone": "+66-2-6350025", 
 "city_id": "1", 
 "photos": null, 
 "avgprice": null, 
 "office_hours": "尚无营业时间", 
 "shop_id": 1252, 
 "address": "59SathonSathon10BangRak,Bangkok,10500", 
 "city_name": "曼谷", 
 "lng": "100.525454", 
 "category_id": 1
}
{
 "category": "按摩", 
 "rating": 0.0, 
 "lat": "13.749458296645525", 
 "name": "InBalance Massage by Novotel at Novotel Platinum", 
 "phone": "Telephone", 
 "city_id": "1", 
 "photos": null, 
 "avgprice": null, 
 "office_hours": "尚无营业时间", 
 "shop_id": 1253, 
 "address": "NovotelPlatinum(PetchaburiRoadRatchathewi),พระนคร,กรุงเทพมหานคร10400,ประเทศไทย", 
 "city_name": "曼谷", 
 "lng": "100.54049682064073", 
 "category_id": 1
}
{
 "category": "按摩", 
 "rating": 3.5, 
 "lat": "13.749809", 
 "name": "Areeya Massage", 
 "phone": "Telephone", 
 "city_id": "1", 
 "photos": null, 
 "avgprice": null, 
 "office_hours": "尚无营业时间", 
 "shop_id": 1254, 
 "address": "พระนคร,กรุงเทพมหานคร,ประเทศไทย", 
 "city_name": "曼谷", 
 "lng": "100.541025", 
 "category_id": 1
}
{
 "category": "按摩", 
 "rating": 0.0, 
 "lat": "13.744677484939022", 
 "name": "The Vintage Nail Gallery", 
 "phone": "Telephone", 
 "city_id": "1", 
 "photos": null, 
 "avgprice": null, 
 "office_hours": "尚无营业时间", 
 "shop_id": 1255, 
 "address": "SiamSquareSoi2,ปทุมวัน,กรุงเทพมหานคร10330,ประเทศไทย", 
 "city_name": "曼谷", 
 "lng": "100.53245974388255", 
 "category_id": 1
}
{
 "category": "按摩", 
 "rating": 0.0, 
 "lat": "13.787318", 
 "name": "Chun Som Massage", 
 "phone": "Telephone", 
 "city_id": "1", 
 "photos": null, 
 "avgprice": null, 
 "office_hours": "尚无营业时间", 
 "shop_id": 1256, 
 "address": "KhlongChan,กรุงเทพมหานคร,ประเทศไทย", 
 "city_name": "曼谷", 
 "lng": "100.629262", 
 "category_id": 1
}
{
 "category": "按摩", 
 "rating": 0.0, 
 "lat": "13.771990502927094", 
 "name": "MOONSTONE", 
 "phone": "Telephone", 
 "city_id": "1", 
 "photos": null, 
 "avgprice": null, 
 "office_hours": "尚无营业时间", 
 "shop_id": 1257, 
 "address": "โรงแรมรัชดาซิตี้,รัชดาภิเษก,ห้วยขวางจตุจักร,กรุงเทพมหานคร10900,พระนคร,กรุงเทพมหานคร10900,ประเทศไทย", 
 "city_name": "曼谷", 
 "lng": "100.5753890658656", 
 "category_id": 1
}
{
 "category": "按摩", 
 "rating": 0.0, 
 "lat": "13.747529", 
 "name": "Cityretreat Day Spa", 
 "phone": "+66-2-6414313", 
 "city_id": "1", 
 "photos": null, 
 "avgprice": null, 
 "office_hours": "尚无营业时间", 
 "shop_id": 1258, 
 "address": "23/45RoyalCityAvenueRCA.,BlockF,BangKapi,HouyKwang", 
 "city_name": "曼谷", 
 "lng": "100.58022", 
 "category_id": 1
}
{
 "category": "按摩", 
 "rating": 0.0, 
 "lat": "13.694551", 
 "name": "sabai body spa seacon srinakarin", 
 "phone": "Telephone", 
 "city_id": "1", 
 "photos": null, 
 "avgprice": null, 
 "office_hours": "尚无营业时间", 
 "shop_id": 1259, 
 "address": "Srinakarin,พระนคร,กรุงเทพมหานคร10250,ประเทศไทย", 
 "city_name": "曼谷", 
 "lng": "100.647981", 
 "category_id": 1
}
{
 "category": "按摩", 
 "rating": 0.0, 
 "lat": "13.747243", 
 "name": "Sara Spa and Beauty", 
 "phone": "+66-2-2480011", 
 "city_id": "1", 
 "photos": null, 
 "avgprice": null, 
 "office_hours": "尚无营业时间", 
 "shop_id": 1260, 
 "address": "MaxxHotel,288Rama9Road", 
 "city_name": "曼谷", 
 "lng": "100.604424", 
 "category_id": 1
}
{
 "category": "按摩", 
 "rating": 0.0, 
 "lat": "13.746555", 
 "name": "S Medical SPA", 
 "phone": "+66-2-2531010", 
 "city_id": "1", 
 "photos": null, 
 "avgprice": null, 
 "office_hours": "尚无营业时间", 
 "shop_id": 1261, 
 "address": "2/2BhakdiBldg.,WirelessRd.,Lumpini,Pathumwan,PathumWan,Bangkok10330,Thailand", 
 "city_name": "曼谷", 
 "lng": "100.547988", 
 "category_id": 1
}
{
 "category": "按摩", 
 "rating": 0.0, 
 "lat": "13.74616021183466", 
 "name": "Bright To Be Slimming And Spa", 
 "phone": "Telephone", 
 "city_id": "1", 
 "photos": null, 
 "avgprice": null, 
 "office_hours": "尚无营业时间", 
 "shop_id": 1262, 
 "address": "TheOldSiamPlaza,พระนคร,กรุงเทพมหานคร,ประเทศไทย", 
 "city_name": "曼谷", 
 "lng": "100.50009333286576", 
 "category_id": 1
}
{
 "category": "按摩", 
 "rating": 0.0, 
 "lat": "13.723086861738476", 
 "name": "Royal Botanic Boutique", 
 "phone": "Telephone", 
 "city_id": "1", 
 "photos": null, 
 "avgprice": null, 
 "office_hours": "尚无营业时间", 
 "shop_id": 1263, 
 "address": "พระนคร,กรุงเทพมหานคร,ประเทศไทย", 
 "city_name": "曼谷", 
 "lng": "100.5130209501216", 
 "category_id": 1
}
{
 "category": "按摩", 
 "rating": 0.0, 
 "lat": "13.994400049139042", 
 "name": "Phurita Health&Spa;", 
 "phone": "Telephone", 
 "city_id": "1", 
 "photos": null, 
 "avgprice": null, 
 "office_hours": "尚无营业时间", 
 "shop_id": 1264, 
 "address": "พระนคร,กรุงเทพมหานคร,ประเทศไทย", 
 "city_name": "曼谷", 
 "lng": "100.6129225868282", 
 "category_id": 1
}
{
 "category": "按摩", 
 "rating": 0.0, 
 "lat": "13.83839", 
 "name": "The House - Wellness Massage And Spa", 
 "phone": "+66-2-082295422", 
 "city_id": "1", 
 "photos": null, 
 "avgprice": null, 
 "office_hours": "尚无营业时间", 
 "shop_id": 1265, 
 "address": "ประดิษมนูธรรม31เรียบทางด่วนเอกมัยรามอินทรา,ลาดพร้าว,กรุงเทพมหานคร,ประเทศไทย", 
 "city_name": "曼谷", 
 "lng": "100.632611", 
 "category_id": 1
}
{
 "category": "按摩", 
 "rating": 0.0, 
 "lat": "13.86143699953839", 
 "name": "NN Spa&Massage;", 
 "phone": "Telephone", 
 "city_id": "1", 
 "photos": null, 
 "avgprice": null, 
 "office_hours": "尚无营业时间", 
 "shop_id": 1266, 
 "address": "พระนคร,กรุงเทพมหานคร,ประเทศไทย", 
 "city_name": "曼谷", 
 "lng": "100.56611595957692", 
 "category_id": 1
}
{
 "category": "按摩", 
 "rating": 0.0, 
 "lat": "13.766126", 
 "name": "Fishspa", 
 "phone": "+66-2-819180514", 
 "city_id": "1", 
 "photos": null, 
 "avgprice": null, 
 "office_hours": "尚无营业时间", 
 "shop_id": 1267, 
 "address": "CarrefourRatchadaRoad", 
 "city_name": "曼谷", 
 "lng": "100.56962", 
 "category_id": 1
}
{
 "category": "按摩", 
 "rating": 0.0, 
 "lat": "13.686772464833243", 
 "name": "The Waxing Bar", 
 "phone": "Telephone", 
 "city_id": "1", 
 "photos": null, 
 "avgprice": null, 
 "office_hours": "尚无营业时间", 
 "shop_id": 1268, 
 "address": "Paradisepark,พระนคร,กรุงเทพมหานคร,ประเทศไทย", 
 "city_name": "曼谷", 
 "lng": "100.64780370947392", 
 "category_id": 1
}
{
 "category": "按摩", 
 "rating": 0.0, 
 "lat": "13.7786622921787", 
 "name": "Khin&apos;s Massage", 
 "phone": "Telephone", 
 "city_id": "1", 
 "photos": null, 
 "avgprice": null, 
 "office_hours": "尚无营业时间", 
 "shop_id": 1269, 
 "address": "PracharatbumphenRoad,ห้วยขวาง,กรุงเทพมหานคร10310,ประเทศไทย", 
 "city_name": "曼谷", 
 "lng": "100.57654320855303", 
 "category_id": 1
}
{
 "category": "按摩", 
 "rating": 0.0, 
 "lat": "13.895337", 
 "name": "*SiTa Spa*", 
 "phone": "Telephone", 
 "city_id": "1", 
 "photos": null, 
 "avgprice": null, 
 "office_hours": "尚无营业时间", 
 "shop_id": 1270, 
 "address": "พระนคร,กรุงเทพมหานคร10220,ประเทศไทย", 
 "city_name": "曼谷", 
 "lng": "100.612855", 
 "category_id": 1
}
{
 "category": "按摩", 
 "rating": 0.0, 
 "lat": "13.893056", 
 "name": "Sabuy~Sabuy Spa&Massage;", 
 "phone": "Telephone", 
 "city_id": "1", 
 "photos": null, 
 "avgprice": null, 
 "office_hours": "尚无营业时间", 
 "shop_id": 1271, 
 "address": "พระนคร,กรุงเทพมหานคร,ประเทศไทย", 
 "city_name": "曼谷", 
 "lng": "100.584376", 
 "category_id": 1
}
{
 "category": "按摩", 
 "rating": 0.0, 
 "lat": "13.754766445926224", 
 "name": "Myrrp Massage@Wanglang", 
 "phone": "Telephone", 
 "city_id": "1", 
 "photos": null, 
 "avgprice": null, 
 "office_hours": "尚无营业时间", 
 "shop_id": 1272, 
 "address": "พระนคร,กรุงเทพมหานคร,ประเทศไทย", 
 "city_name": "曼谷", 
 "lng": "100.48750796048807", 
 "category_id": 1
}
{
 "category": "按摩", 
 "rating": 0.0, 
 "lat": "13.666068", 
 "name": "Brong spa", 
 "phone": "Telephone", 
 "city_id": "1", 
 "photos": null, 
 "avgprice": null, 
 "office_hours": "尚无营业时间", 
 "shop_id": 1273, 
 "address": "CentralBangna(Bangna-trad),พระนคร,กรุงเทพมหานคร,ประเทศไทย", 
 "city_name": "曼谷", 
 "lng": "100.634155", 
 "category_id": 1
}
{
 "category": "按摩", 
 "rating": 0.0, 
 "lat": "13.719979", 
 "name": "Chomnard Spa", 
 "phone": "Telephone", 
 "city_id": "1", 
 "photos": null, 
 "avgprice": null, 
 "office_hours": "尚无营业时间", 
 "shop_id": 1274, 
 "address": "Suanplu(Sathorn),ทุ่งมหาเมฆ,กรุงเทพมหานคร,ประเทศไทย", 
 "city_name": "曼谷", 
 "lng": "100.537985", 
 "category_id": 1
}
{
 "category": "按摩", 
 "rating": 0.0, 
 "lat": "13.721608", 
 "name": "Ananda Lanna Thai Massage", 
 "phone": "+66 83 199 9918", 
 "city_id": "1", 
 "photos": null, 
 "avgprice": null, 
 "office_hours": "尚无营业时间", 
 "shop_id": 1275, 
 "address": "Ladkrabang44,พระนคร,กรุงเทพมหานคร10520,ประเทศไทย", 
 "city_name": "曼谷", 
 "lng": "100.774597", 
 "category_id": 1
}
{
 "category": "按摩", 
 "rating": 0.0, 
 "lat": "13.74121", 
 "name": "Thai House Traditional Thai Massage & Spa", 
 "phone": "+66 81 136 6401", 
 "city_id": "1", 
 "photos": null, 
 "avgprice": null, 
 "office_hours": "尚无营业时间", 
 "shop_id": 1276, 
 "address": "4/24-25SukhumvitSoi8(Klongtoey),พระนคร,กรุงเทพมหานคร10110,ประเทศไทย", 
 "city_name": "曼谷", 
 "lng": "100.556259", 
 "category_id": 1
}
{
 "category": "按摩", 
 "rating": 0.0, 
 "lat": "13.726133", 
 "name": "Aha Spa", 
 "phone": "+66-2-8623330", 
 "city_id": "1", 
 "photos": null, 
 "avgprice": null, 
 "office_hours": "尚无营业时间", 
 "shop_id": 1277, 
 "address": "ThanonCharoenRat,KhlongSan,คลองสาน", 
 "city_name": "曼谷", 
 "lng": "100.499074", 
 "category_id": 1
}
{
 "category": "按摩", 
 "rating": 0.0, 
 "lat": "13.738968993269909", 
 "name": "Freind&apos;s Barber", 
 "phone": "Telephone", 
 "city_id": "1", 
 "photos": null, 
 "avgprice": null, 
 "office_hours": "尚无营业时间", 
 "shop_id": 1278, 
 "address": "SukhumwitSoi19,พระนคร,กรุงเทพมหานคร,ประเทศไทย", 
 "city_name": "曼谷", 
 "lng": "100.55989099148626", 
 "category_id": 1
}
{
 "category": "按摩", 
 "rating": 0.0, 
 "lat": "13.825039247066494", 
 "name": "Daimanzoku", 
 "phone": "Telephone", 
 "city_id": "1", 
 "photos": null, 
 "avgprice": null, 
 "office_hours": "尚无营业时间", 
 "shop_id": 1279, 
 "address": "KhannaYao,กรุงเทพมหานคร10230,ประเทศไทย", 
 "city_name": "曼谷", 
 "lng": "100.67818070066404", 
 "category_id": 1
}
{
 "category": "按摩", 
 "rating": 0.0, 
 "lat": "13.730444", 
 "name": "Erb", 
 "phone": "Telephone", 
 "city_id": "1", 
 "photos": null, 
 "avgprice": null, 
 "office_hours": "尚无营业时间", 
 "shop_id": 1280, 
 "address": "Emporium,คลองเตย,กรุงเทพมหานคร10110,ประเทศไทย", 
 "city_name": "曼谷", 
 "lng": "100.568823", 
 "category_id": 1
}
{
 "category": "按摩", 
 "rating": 0.0, 
 "lat": "13.743423565436572", 
 "name": "Sparsha", 
 "phone": "Telephone", 
 "city_id": "1", 
 "photos": null, 
 "avgprice": null, 
 "office_hours": "尚无营业时间", 
 "shop_id": 1281, 
 "address": "Sukhumvit39,พระนคร,กรุงเทพมหานคร,ประเทศไทย", 
 "city_name": "曼谷", 
 "lng": "100.57306983235436", 
 "category_id": 1
}
